{
"type": "FeatureCollection",
"name": "Fast Food Restaurants in Georgia",
"crs": { "type": "name", "properties": { "name": "urn:ogc:def:crs:OGC:1.3:CRS84" } },
"features": [
{ "type": "Feature", "properties": { "address": "982 Macon St", "city": "Warner Robins", "country": "US", "keys": "us/ga/warnerrobins/982maconst/-2061630068", "latitude": 32.59495, "longitude": -83.58338, "name": "Burger King", "postalCode": "31098", "province": "GA", "websites": "http://www.bk.com,https://locations.bk.com/ga/warner-robins/982-macon-st.html,https://www.bk.com" }, "geometry": { "type": "Point", "coordinates": [ -83.58338, 32.59495 ] } },
{ "type": "Feature", "properties": { "address": "3898 Cleveland Hwy", "city": "Dalton", "country": "US", "keys": "us/ga/dalton/3898clevelandhwy/-1161002137", "latitude": 34.89383, "longitude": -84.94654, "name": "McDonalds", "postalCode": "30721", "province": "GA", "websites": "http://mcdonalds.com" }, "geometry": { "type": "Point", "coordinates": [ -84.94654, 34.89383 ] } },
{ "type": "Feature", "properties": { "address": "976 William H Wilson Ave Ste 100", "city": "Fort Stewart", "country": "US", "keys": "us/ga/fortstewart/976williamhwilsonaveste100/-2061630068", "latitude": 31.8613, "longitude": -81.61078, "name": "Burger King", "postalCode": "31314", "province": "GA", "websites": "https://locations.bk.com/ga/fort-stewart/976-william-h-wilson-ave.html,http://www.bk.com" }, "geometry": { "type": "Point", "coordinates": [ -81.61078, 31.8613 ] } },
{ "type": "Feature", "properties": { "address": "1700 Norman Dr Spc 1056", "city": "Valdosta", "country": "US", "keys": "us/ga/valdosta/1700normandrspc1056/-345832572", "latitude": 30.84377, "longitude": -83.32041, "name": "Chick-fil-A", "postalCode": "31601", "province": "GA", "websites": "http://www.chick-fil-a.com/valdostamall,http://www.chick-fil-a.com" }, "geometry": { "type": "Point", "coordinates": [ -83.32041, 30.84377 ] } },
{ "type": "Feature", "properties": { "address": "815 West Second Street", "city": "Tifton", "country": "US", "keys": "us/ga/tifton/815westsecondstreet/-442344130", "latitude": 31.458252, "longitude": -83.526697, "name": "Krystal", "postalCode": "31794", "province": "GA", "websites": "http://t.co/3VQiWtMxPf,http://www.krystal.com/locations/georgia/tifton-west-second-street/" }, "geometry": { "type": "Point", "coordinates": [ -83.526697, 31.458252 ] } },
{ "type": "Feature", "properties": { "address": "810 2nd St W", "city": "Tifton", "country": "US", "keys": "us/ga/tifton/8102ndstw/93075755", "latitude": 31.4575, "longitude": -83.52582, "name": "Arby's", "postalCode": "31794", "province": "GA", "websites": "http://www.arbys.com,https://locations.arbys.com/us/ga/tifton/810-2nd-st-w.html,http://locations.arbys.com/us/ga/tifton/810-2nd-st-w.html" }, "geometry": { "type": "Point", "coordinates": [ -83.52582, 31.4575 ] } },
{ "type": "Feature", "properties": { "address": "303 S Magnolia Street", "city": "Tifton", "country": "US", "keys": "us/ga/tifton/303smagnoliastreet/1241037051", "latitude": 31.451335, "longitude": -83.524973, "name": "Bojangles' Famous Chicken 'n Biscuits", "postalCode": "31793", "province": "GA", "websites": "https://locations.bojangles.com/ga/tifton/303-s--magnolia-street.html,http://locations.bojangles.com/ga/tifton/303-s--magnolia-street.html" }, "geometry": { "type": "Point", "coordinates": [ -83.524973, 31.451335 ] } },
{ "type": "Feature", "properties": { "address": "108 E Brazell Street", "city": "Reidsville", "country": "US", "keys": "us/ga/reidsville/108ebrazellstreet/-1161002137", "latitude": 32.0872, "longitude": -82.1169, "name": "McDonald's", "postalCode": "30453", "province": "GA", "websites": "http://www.mcdonalds.com,http://www.mcdonalds.com/?cid=RF:YXT_FM:TP::Yext:Referral" }, "geometry": { "type": "Point", "coordinates": [ -82.1169, 32.0872 ] } },
{ "type": "Feature", "properties": { "address": "506 S Main St", "city": "Swainsboro", "country": "US", "keys": "us/ga/swainsboro/506smainst/-1161002137", "latitude": 32.584458, "longitude": -82.321669, "name": "McDonald's", "postalCode": "30401", "province": "GA", "websites": "http://mcdonalds.com,http://www.mcdonalds.com/?cid=RF:YXT_FM:TP::Yext:Referral" }, "geometry": { "type": "Point", "coordinates": [ -82.321669, 32.584458 ] } },
{ "type": "Feature", "properties": { "address": "302 S Main St", "city": "Swainsboro", "country": "US", "keys": "us/ga/swainsboro/302smainst/106088", "latitude": 32.5931, "longitude": -82.3314, "name": "KFC", "postalCode": "30401", "province": "GA", "websites": "http://www.kfc.com" }, "geometry": { "type": "Point", "coordinates": [ -82.3314, 32.5931 ] } },
{ "type": "Feature", "properties": { "address": "501 S Main St", "city": "Swainsboro", "country": "US", "keys": "us/ga/swainsboro/501smainst/696490760", "latitude": 32.58476, "longitude": -82.321876, "name": "Hardee's", "postalCode": "30401", "province": "GA", "websites": "http://www.hardees.com" }, "geometry": { "type": "Point", "coordinates": [ -82.321876, 32.58476 ] } },
{ "type": "Feature", "properties": { "address": "413 S Main St", "city": "Swainsboro", "country": "US", "keys": "us/ga/swainsboro/413smainst/-2061630068", "latitude": 32.58951, "longitude": -82.32731, "name": "Burger King", "postalCode": "30401", "province": "GA", "websites": "http://www.bk.com,https://locations.bk.com/ga/swainsboro/413-south-main-st.html,https://www.bk.com" }, "geometry": { "type": "Point", "coordinates": [ -82.32731, 32.58951 ] } },
{ "type": "Feature", "properties": { "address": "9541 Highway 5", "city": "Douglasville", "country": "US", "keys": "us/ga/douglasville/9541highway5/-624847056", "latitude": 33.723988, "longitude": -84.76282, "name": "Popeyes Louisiana Kitchen", "postalCode": "30135-1511", "province": "GA", "websites": null }, "geometry": { "type": "Point", "coordinates": [ -84.76282, 33.723988 ] } },
{ "type": "Feature", "properties": { "address": "3300 Highway 278 NE", "city": "Covington", "country": "US", "keys": "us/ga/covington/3300highway278ne/-791445730", "latitude": 33.60239, "longitude": -83.85361, "name": "Wendy's", "postalCode": "30014", "province": "GA", "websites": "http://www.wendys.com" }, "geometry": { "type": "Point", "coordinates": [ -83.85361, 33.60239 ] } },
{ "type": "Feature", "properties": { "address": "293 West Clinton Street", "city": "Gray", "country": "US", "keys": "us/ga/gray/293westclintonstreet/-442344130", "latitude": 33.00271, "longitude": -83.548546, "name": "Krystal", "postalCode": "31032", "province": "GA", "websites": "http://t.co/3VQiWtMxPf,http://www.krystal.com/locations/georgia/gray-west-clinton-street/" }, "geometry": { "type": "Point", "coordinates": [ -83.548546, 33.00271 ] } },
{ "type": "Feature", "properties": { "address": "1162 Boone Avenue Exit E", "city": "Kingsland", "country": "US", "keys": "us/ga/kingsland/1162booneavenueexite/-2061630068", "latitude": 30.7919, "longitude": -81.6728, "name": "Burger King", "postalCode": "31548", "province": "GA", "websites": null }, "geometry": { "type": "Point", "coordinates": [ -81.6728, 30.7919 ] } },
{ "type": "Feature", "properties": { "address": "Hwy 5 Appalachian Parkway", "city": "East Ellijay", "country": "US", "keys": "us/ga/eastellijay/hwy5appalachianparkway/-2061630068", "latitude": 34.67684, "longitude": -84.47796, "name": "Burger King", "postalCode": "30539", "province": "GA", "websites": "http://www.bk.com,https://locations.bk.com/ga/east-ellijay/hwy-5-appalachian-parkway.html" }, "geometry": { "type": "Point", "coordinates": [ -84.47796, 34.67684 ] } },
{ "type": "Feature", "properties": { "address": "256 Bobby Jones Expressway", "city": "Augusta", "country": "US", "keys": "us/ga/augusta/256bobbyjonesexpressway/-442344130", "latitude": 33.504425, "longitude": -82.08886, "name": "Krystal", "postalCode": "30907", "province": "GA", "websites": "http://t.co/3VQiWtMxPf,http://www.krystal.com/locations/georgia/martinez-bobby-jones-expressway/" }, "geometry": { "type": "Point", "coordinates": [ -82.08886, 33.504425 ] } },
{ "type": "Feature", "properties": { "address": "3403 Wrightsboro Road", "city": "Augusta", "country": "US", "keys": "us/ga/augusta/3403wrightsbororoad/-442344130", "latitude": 33.46868, "longitude": -82.075236, "name": "Krystal", "postalCode": "30909", "province": "GA", "websites": "http://t.co/3VQiWtMxPf,http://www.krystal.com/locations/georgia/augusta-wrightsboro-road/" }, "geometry": { "type": "Point", "coordinates": [ -82.075236, 33.46868 ] } },
{ "type": "Feature", "properties": { "address": "1255 Scenic Hwy", "city": "Lawrenceville", "country": "US", "keys": "us/ga/lawrenceville/1255scenichwy/1082608893", "latitude": 33.902948, "longitude": -84.00467, "name": "Waffle House", "postalCode": "30045", "province": "GA", "websites": "https://locations.wafflehouse.com/ga-lawrenceville-1684" }, "geometry": { "type": "Point", "coordinates": [ -84.00467, 33.902948 ] } },
{ "type": "Feature", "properties": { "address": "1811 Hwy 53 West", "city": "Jasper", "country": "US", "keys": "us/ga/jasper/1811hwy53west/1241037051", "latitude": 34.464977, "longitude": -84.46086, "name": "Bojangles' Famous Chicken 'n Biscuits", "postalCode": "30143", "province": "GA", "websites": "http://www.bojangles.com,http://locations.bojangles.com/ga/jasper/1811-hwy-53-west.html" }, "geometry": { "type": "Point", "coordinates": [ -84.46086, 34.464977 ] } },
{ "type": "Feature", "properties": { "address": "4145 Hwy 20", "city": "Buford", "country": "US", "keys": "us/ga/buford/4145hwy20/93075755", "latitude": 34.093054, "longitude": -84.003065, "name": "Arby's", "postalCode": "30518", "province": "GA", "websites": "http://www.arbys.com" }, "geometry": { "type": "Point", "coordinates": [ -84.003065, 34.093054 ] } },
{ "type": "Feature", "properties": { "address": "4151 Atlanta Hwy", "city": "Loganville", "country": "US", "keys": "us/ga/loganville/4151atlantahwy/93075755", "latitude": 33.8434, "longitude": -83.9094, "name": "Arby's", "postalCode": "30052", "province": "GA", "websites": "http://www.arbys.com,https://locations.arbys.com/us/ga/loganville/4151-atlanta-hwy.html,http://locations.arbys.com/us/ga/loganville/4151-atlanta-hwy.html" }, "geometry": { "type": "Point", "coordinates": [ -83.9094, 33.8434 ] } },
{ "type": "Feature", "properties": { "address": "8550 Roswell Road", "city": "Atlanta", "country": "US", "keys": "us/ga/atlanta/8550roswellroad/1241037051", "latitude": 33.987239, "longitude": -84.351395, "name": "Bojangles' Famous Chicken 'n Biscuits", "postalCode": "30350", "province": "GA", "websites": null }, "geometry": { "type": "Point", "coordinates": [ -84.351395, 33.987239 ] } },
{ "type": "Feature", "properties": { "address": "1212 Manchester Expy", "city": "Columbus", "country": "US", "keys": "us/ga/columbus/1212manchesterexpy/-1560457549", "latitude": 32.506759, "longitude": -84.975187, "name": "Captain D's", "postalCode": "31904", "province": "GA", "websites": "https://locations.captainds.com/ga/columbus/1212-manchester-expy.html" }, "geometry": { "type": "Point", "coordinates": [ -84.975187, 32.506759 ] } },
{ "type": "Feature", "properties": { "address": "111 N Morningside Drive", "city": "Cartersville", "country": "US", "keys": "us/ga/cartersville/111nmorningsidedrive/-442344130", "latitude": 34.169615, "longitude": -84.787046, "name": "Krystal", "postalCode": "30120", "province": "GA", "websites": "http://t.co/3VQiWtMxPf,http://www.krystal.com/locations/georgia/cartersville-north-morningside-drive/" }, "geometry": { "type": "Point", "coordinates": [ -84.787046, 34.169615 ] } },
{ "type": "Feature", "properties": { "address": "25 Main Street", "city": "Dawsonville", "country": "US", "keys": "us/ga/dawsonville/25mainstreet/1241037051", "latitude": 34.416988, "longitude": -84.113015, "name": "Bojangles' Famous Chicken 'n Biscuits", "postalCode": "30534", "province": "GA", "websites": "http://www.bojangles.com" }, "geometry": { "type": "Point", "coordinates": [ -84.113015, 34.416988 ] } },
{ "type": "Feature", "properties": { "address": "4071 Covington Hwy", "city": "Decatur", "country": "US", "keys": "us/ga/decatur/4071covingtonhwy/-791445730", "latitude": 33.754799, "longitude": -84.235803, "name": "Wendy's", "postalCode": "30032", "province": "GA", "websites": "http://www.wendys.com" }, "geometry": { "type": "Point", "coordinates": [ -84.235803, 33.754799 ] } },
{ "type": "Feature", "properties": { "address": "4063 Glenwood Rd", "city": "Decatur", "country": "US", "keys": "us/ga/decatur/4063glenwoodrd/1536894814", "latitude": 33.73765, "longitude": -84.25166, "name": "Checkers", "postalCode": "30032", "province": "GA", "websites": "https://www.checkers.com" }, "geometry": { "type": "Point", "coordinates": [ -84.25166, 33.73765 ] } },
{ "type": "Feature", "properties": { "address": "1855 Candler Rd", "city": "Decatur", "country": "US", "keys": "us/ga/decatur/1855candlerrd/-442344130", "latitude": 33.73645, "longitude": -84.28714, "name": "Krystal", "postalCode": "30032", "province": "GA", "websites": "http://t.co/3VQiWtMxPf,http://www.krystal.com/locations/georgia/decatur-candler-road" }, "geometry": { "type": "Point", "coordinates": [ -84.28714, 33.73645 ] } },
{ "type": "Feature", "properties": { "address": "3542 Memorial Dr", "city": "Decatur", "country": "US", "keys": "us/ga/decatur/3542memorialdr/-2061630068", "latitude": 33.754801, "longitude": -84.2687, "name": "Burger King", "postalCode": "30032", "province": "GA", "websites": "http://www.bk.com" }, "geometry": { "type": "Point", "coordinates": [ -84.2687, 33.754801 ] } },
{ "type": "Feature", "properties": { "address": "1881 Candler Rd", "city": "Decatur", "country": "US", "keys": "us/ga/decatur/1881candlerrd/-1560457549,us/ga/decatur/1881candlerrd/-1560457549", "latitude": 33.73573, "longitude": -84.28677, "name": "Captain D's", "postalCode": "30032-4157", "province": "GA", "websites": "https://locations.captainds.com/ga/decatur/1881-candler-rd.html" }, "geometry": { "type": "Point", "coordinates": [ -84.28677, 33.73573 ] } },
{ "type": "Feature", "properties": { "address": "301 Vineville St", "city": "Fort Valley", "country": "US", "keys": "us/ga/fortvalley/301vinevillest/-1560457549", "latitude": 32.55883, "longitude": -83.88626, "name": "Captain D's", "postalCode": "31030", "province": "GA", "websites": "https://locations.captainds.com/ga/fort-valley/301-vineville-ave.html" }, "geometry": { "type": "Point", "coordinates": [ -83.88626, 32.55883 ] } },
{ "type": "Feature", "properties": { "address": "4285 Bells Ferry Rd NW", "city": "Kennesaw", "country": "US", "keys": "us/ga/kennesaw/4285bellsferryrdnw/-2061630068", "latitude": 34.05561, "longitude": -84.5573, "name": "Burger King", "postalCode": "30144", "province": "GA", "websites": "http://www.bk.com" }, "geometry": { "type": "Point", "coordinates": [ -84.5573, 34.05561 ] } },
{ "type": "Feature", "properties": { "address": "115 Golden Isles Plaza", "city": "Brunswick", "country": "US", "keys": "us/ga/brunswick/115goldenislesplaza/-2061630068", "latitude": 31.21315, "longitude": -81.49214, "name": "Burger King", "postalCode": "31520", "province": "GA", "websites": "http://www.bk.com" }, "geometry": { "type": "Point", "coordinates": [ -81.49214, 31.21315 ] } },
{ "type": "Feature", "properties": { "address": "222 Hammond Dr", "city": "Atlanta", "country": "US", "keys": "us/ga/atlanta/222hammonddr/-2061630068", "latitude": 33.9194, "longitude": -84.3798, "name": "Burger King", "postalCode": "30328", "province": "GA", "websites": "http://www.bk.com" }, "geometry": { "type": "Point", "coordinates": [ -84.3798, 33.9194 ] } },
{ "type": "Feature", "properties": { "address": "1199 N Saint Augustine Rd", "city": "Valdosta", "country": "US", "keys": "us/ga/valdosta/1199nsaintaugustinerd/-864103396", "latitude": 30.84221, "longitude": -83.32427, "name": "Taco Bell", "postalCode": "31601", "province": "GA", "websites": "http://www.tacobell.com,https://locations.tacobell.com/ga/valdosta/1199-st-augustine-road.html?utm_source=yextandutm_campaign=yextpowerlistingsandutm_medium=referralandutm_term=029089andutm_content=website" }, "geometry": { "type": "Point", "coordinates": [ -83.32427, 30.84221 ] } },
{ "type": "Feature", "properties": { "address": "54 E May St", "city": "Winder", "country": "US", "keys": "us/ga/winder/54emayst/-1560457549", "latitude": 33.98937, "longitude": -83.71989, "name": "Captain D's", "postalCode": "30680", "province": "GA", "websites": "https://locations.captainds.com/ga/winder/54-e-may-st.html" }, "geometry": { "type": "Point", "coordinates": [ -83.71989, 33.98937 ] } },
{ "type": "Feature", "properties": { "address": "2410 S Cobb Dr SE", "city": "Smyrna", "country": "US", "keys": "us/ga/smyrna/2410scobbdrse/1536894814", "latitude": 33.89404, "longitude": -84.53855, "name": "Checkers", "postalCode": "30080", "province": "GA", "websites": "https://locations.checkers.com/ga/smyrna/2410-s.-cobb-drive,https://www.checkers.com,http://www.checkers.com" }, "geometry": { "type": "Point", "coordinates": [ -84.53855, 33.89404 ] } },
{ "type": "Feature", "properties": { "address": "701 Northside Dr E", "city": "Statesboro", "country": "US", "keys": "us/ga/statesboro/701northsidedre/1536894814", "latitude": 32.43793, "longitude": -81.76179, "name": "Checkers", "postalCode": "30458", "province": "GA", "websites": "http://checkers.com" }, "geometry": { "type": "Point", "coordinates": [ -81.76179, 32.43793 ] } },
{ "type": "Feature", "properties": { "address": "500 Hopkins Corner Dr", "city": "Waynesboro", "country": "US", "keys": "us/ga/waynesboro/500hopkinscornerdr/-2061630068", "latitude": 33.10469, "longitude": -82.02287, "name": "Burger King", "postalCode": "30830", "province": "GA", "websites": "http://www.bk.com,https://locations.bk.com/ga/waynesboro/500-hopkins-corner-dr.html" }, "geometry": { "type": "Point", "coordinates": [ -82.02287, 33.10469 ] } },
{ "type": "Feature", "properties": { "address": "1 Cnn Center", "city": "Atlanta", "country": "US", "keys": "us/ga/atlanta/1cnncenter/93075755", "latitude": 33.7579, "longitude": -84.3943, "name": "Arby's", "postalCode": "30303", "province": "GA", "websites": "http://www.arbys.com" }, "geometry": { "type": "Point", "coordinates": [ -84.3943, 33.7579 ] } },
{ "type": "Feature", "properties": { "address": "4025 Holcomb Bridge Rd", "city": "Norcross", "country": "US", "keys": "us/ga/norcross/4025holcombbridgerd/106088", "latitude": 33.9671, "longitude": -84.2571, "name": "KFC", "postalCode": "30092", "province": "GA", "websites": "http://www.kfc.com" }, "geometry": { "type": "Point", "coordinates": [ -84.2571, 33.9671 ] } },
{ "type": "Feature", "properties": { "address": "6475 Gateway Road", "city": "Columbus", "country": "US", "keys": "us/ga/columbus/6475gatewayroad/-1161002137", "latitude": 32.5385, "longitude": -84.8769, "name": "Mcdonald's", "postalCode": "31909", "province": "GA", "websites": "http://mcdonalds.com,http://www.mcdonalds.com/?cid=RF:YXT_FM:TP::Yext:Referral" }, "geometry": { "type": "Point", "coordinates": [ -84.8769, 32.5385 ] } },
{ "type": "Feature", "properties": { "address": "6038 Memorial Dr", "city": "Stone Mountain", "country": "US", "keys": "us/ga/stonemountain/6038memorialdr/-2061630068", "latitude": 33.80372, "longitude": -84.19256, "name": "Burger King", "postalCode": "30083", "province": "GA", "websites": "http://www.bk.com" }, "geometry": { "type": "Point", "coordinates": [ -84.19256, 33.80372 ] } },
{ "type": "Feature", "properties": { "address": "4537 Chamblee Dunwoody Rd", "city": "Atlanta", "country": "US", "keys": "us/ga/atlanta/4537chambleedunwoodyrd/-2061630068", "latitude": 33.92372, "longitude": -84.31405, "name": "Burger King", "postalCode": "30338", "province": "GA", "websites": "http://www.bk.com" }, "geometry": { "type": "Point", "coordinates": [ -84.31405, 33.92372 ] } },
{ "type": "Feature", "properties": { "address": "1410 N Expressway", "city": "Griffin", "country": "US", "keys": "us/ga/griffin/1410nexpressway/106088,us/ga/griffin/1410nexpressway/106088", "latitude": 33.2699, "longitude": -84.28973, "name": "KFC", "postalCode": "30223-1754", "province": "GA", "websites": null }, "geometry": { "type": "Point", "coordinates": [ -84.28973, 33.2699 ] } },
{ "type": "Feature", "properties": { "address": "600 Hopkins Corner Dr", "city": "Waynesboro", "country": "US", "keys": "us/ga/waynesboro/600hopkinscornerdr/106088", "latitude": 33.1053, "longitude": -82.024, "name": "KFC", "postalCode": "30830", "province": "GA", "websites": "http://www.kfc.com" }, "geometry": { "type": "Point", "coordinates": [ -82.024, 33.1053 ] } },
{ "type": "Feature", "properties": { "address": "950 W Peachtree St NW #250", "city": "Atlanta", "country": "US", "keys": "us/ga/atlanta/950wpeachtreestnw250/-562612811", "latitude": 33.78006, "longitude": -84.38811, "name": "Pita Pit", "postalCode": "30309", "province": "GA", "websites": null }, "geometry": { "type": "Point", "coordinates": [ -84.38811, 33.78006 ] } },
{ "type": "Feature", "properties": { "address": "275 S Liberty St", "city": "Waynesboro", "country": "US", "keys": "us/ga/waynesboro/275slibertyst/1780593795", "latitude": 33.0812, "longitude": -82.00997, "name": "SONIC Drive In", "postalCode": "30830", "province": "GA", "websites": "http://sonicdrivein.com,https://locations.sonicdrivein.com/ga/waynesboro/275-south-liberty-street.html" }, "geometry": { "type": "Point", "coordinates": [ -82.00997, 33.0812 ] } },
{ "type": "Feature", "properties": { "address": "1840 W Hill Ave", "city": "Valdosta", "country": "US", "keys": "us/ga/valdosta/1840whillave/-1161002137", "latitude": 30.82061, "longitude": -83.31292, "name": "McDonald's", "postalCode": "31601", "province": "GA", "websites": "http://mcdonalds.com,http://www.mcdonalds.com" }, "geometry": { "type": "Point", "coordinates": [ -83.31292, 30.82061 ] } },
{ "type": "Feature", "properties": { "address": "3109 E 1st St", "city": "Vidalia", "country": "US", "keys": "us/ga/vidalia/3109e1stst/-1161002137", "latitude": 32.20723, "longitude": -82.378958, "name": "McDonald's", "postalCode": "30474", "province": "GA", "websites": "http://api.citygridmedia.com/content/places/v2/click?q=9YKflVKbY9NauPJdMy0B1gS1IhB4xv4EWw0zDoT-UWc_izWF3zs5PKGdfOHubWrvM0QwDCYwbOH2fdLi0dK5xArULcksCCbfR-WWAz9xD1AmGVAQZIom4U3n5R4DuRC8WJCtvJcNItEKoCSfzwapuGnmwGnHDpEGYXGjnN4u8zXqkiimSHFf4_dbqGRbVgNJY009GGZ" }, "geometry": { "type": "Point", "coordinates": [ -82.378958, 32.20723 ] } },
{ "type": "Feature", "properties": { "address": "1619 N Expressway", "city": "Griffin", "country": "US", "keys": "us/ga/griffin/1619nexpressway/696490760", "latitude": 33.276203, "longitude": -84.291451, "name": "Hardee's", "postalCode": "30223", "province": "GA", "websites": "http://www.hardees.com" }, "geometry": { "type": "Point", "coordinates": [ -84.291451, 33.276203 ] } },
{ "type": "Feature", "properties": { "address": "Highway 136 W Killian", "city": "Trenton", "country": "US", "keys": "us/ga/trenton/highway136wkillian/696490760", "latitude": 34.870086, "longitude": -85.513707, "name": "Hardee's", "postalCode": "30752", "province": "GA", "websites": "http://www.hardees.com" }, "geometry": { "type": "Point", "coordinates": [ -85.513707, 34.870086 ] } },
{ "type": "Feature", "properties": { "address": "1400 N Liberty St", "city": "Waynesboro", "country": "US", "keys": "us/ga/waynesboro/1400nlibertyst/-1161002137", "latitude": 33.10108, "longitude": -82.02278, "name": "McDonald's", "postalCode": "30830", "province": "GA", "websites": "http://mcdonalds.com,http://www.mcdonalds.com,http://www.mcdonalds.com/?cid=RF:YXT_FM:TP::Yext:Referral" }, "geometry": { "type": "Point", "coordinates": [ -82.02278, 33.10108 ] } },
{ "type": "Feature", "properties": { "address": "208 20th St E", "city": "Tifton", "country": "US", "keys": "us/ga/tifton/20820thste/-791445730", "latitude": 31.47235, "longitude": -83.50424, "name": "Wendy's", "postalCode": "31794", "province": "GA", "websites": "https://locations.wendys.com/tifton-ga-9676" }, "geometry": { "type": "Point", "coordinates": [ -83.50424, 31.47235 ] } },
{ "type": "Feature", "properties": { "address": "805 Dawsonville Hwy", "city": "Gainesville", "country": "US", "keys": "us/ga/gainesville/805dawsonvillehwy/-345832572", "latitude": 34.29675, "longitude": -83.85577, "name": "Chick-fil-A", "postalCode": "30501", "province": "GA", "websites": "http://www.chick-fil-a.com/gainesville,http://www.chick-fil-a.com" }, "geometry": { "type": "Point", "coordinates": [ -83.85577, 34.29675 ] } },
{ "type": "Feature", "properties": { "address": "824 East 2nd Street", "city": "Tifton", "country": "US", "keys": "us/ga/tifton/824east2ndstreet/-1161002137", "latitude": 31.4574, "longitude": -83.5267, "name": "McDonald's", "postalCode": "31794", "province": "GA", "websites": "http://mcdonalds.com,http://www.mcdonalds.com/?cid=RF:YXT_FM:TP::Yext:Referral" }, "geometry": { "type": "Point", "coordinates": [ -83.5267, 31.4574 ] } },
{ "type": "Feature", "properties": { "address": "15 Major James Clark Gordon Ave", "city": "Chickamauga", "country": "US", "keys": "us/ga/chickamauga/15majorjamesclarkgordonave/-864103396", "latitude": 34.88728, "longitude": -85.26817, "name": "Taco Bell", "postalCode": "30707", "province": "GA", "websites": "https://locations.tacobell.com/ga/chickamauga/15-major-james-clark-gordon-dr.html,https://locations.tacobell.com/ga/chickamauga/15-major-james-clark-gordon-dr.html?utm_source=yextandutm_campaign=yextpowerlistingsandutm_medium=referralandutm_term=029064an" }, "geometry": { "type": "Point", "coordinates": [ -85.26817, 34.88728 ] } },
{ "type": "Feature", "properties": { "address": "155 Cobb Pkwy S", "city": "Marietta", "country": "US", "keys": "us/ga/marietta/155cobbpkwys/93075755", "latitude": 33.9485, "longitude": -84.51832, "name": "Arby's", "postalCode": "30060-9208", "province": "GA", "websites": "http://www.arbys.com" }, "geometry": { "type": "Point", "coordinates": [ -84.51832, 33.9485 ] } },
{ "type": "Feature", "properties": { "address": "7425 Spout Springs Road", "city": "Flowery Branch", "country": "US", "keys": "us/ga/flowerybranch/7425spoutspringsroad/1780593795", "latitude": 34.1074, "longitude": -83.8729, "name": "SONIC Drive In", "postalCode": "30542", "province": "GA", "websites": "https://locations.sonicdrivein.com/ga/braselton/7425-spout-springs-road.html" }, "geometry": { "type": "Point", "coordinates": [ -83.8729, 34.1074 ] } },
{ "type": "Feature", "properties": { "address": "149 N Lee St", "city": "Forsyth", "country": "US", "keys": "us/ga/forsyth/149nleest/701389594", "latitude": 33.0388, "longitude": -83.9384, "name": "Captain D's Seafood", "postalCode": "31029", "province": "GA", "websites": "https://locations.captainds.com/ga/forsyth/149-n-lee-st.html" }, "geometry": { "type": "Point", "coordinates": [ -83.9384, 33.0388 ] } },
{ "type": "Feature", "properties": { "address": "177 N Lee St", "city": "Forsyth", "country": "US", "keys": "us/ga/forsyth/177nleest/-791445730", "latitude": 33.0392, "longitude": -83.9384, "name": "Wendy's", "postalCode": "31029", "province": "GA", "websites": "https://locations.wendys.com/forsyth-ga-4459" }, "geometry": { "type": "Point", "coordinates": [ -83.9384, 33.0392 ] } },
{ "type": "Feature", "properties": { "address": "1140 Gray Hwy", "city": "Macon", "country": "US", "keys": "us/ga/macon/1140grayhwy/-442344130", "latitude": 32.856462, "longitude": -83.617472, "name": "Krystal", "postalCode": "31211", "province": "GA", "websites": "http://t.co/3VQiWtMxPf,http://www.krystal.com/locations/georgia/macon-gray-highway,http://www.krystal.com/locations/georgia/macon-gray-highway/" }, "geometry": { "type": "Point", "coordinates": [ -83.617472, 32.856462 ] } },
{ "type": "Feature", "properties": { "address": "5900 Jimmy Carter Blvd", "city": "Norcross", "country": "US", "keys": "us/ga/norcross/5900jimmycarterblvd/1082608893", "latitude": 33.9214, "longitude": -84.2116, "name": "Waffle House", "postalCode": "30071", "province": "GA", "websites": "https://locations.wafflehouse.com/ga-norcross-923" }, "geometry": { "type": "Point", "coordinates": [ -84.2116, 33.9214 ] } },
{ "type": "Feature", "properties": { "address": "5365 Peachtree Industrial Blvd", "city": "Norcross", "country": "US", "keys": "us/ga/norcross/5365peachtreeindustrialblvd/1082608893", "latitude": 33.960541, "longitude": -84.210061, "name": "Waffle House", "postalCode": "30092", "province": "GA", "websites": "https://locations.wafflehouse.com/ga-norcross-549" }, "geometry": { "type": "Point", "coordinates": [ -84.210061, 33.960541 ] } },
{ "type": "Feature", "properties": { "address": "15049 US Highway 19 S", "city": "Thomasville", "country": "US", "keys": "us/ga/thomasville/15049ushighway19s/-864103396", "latitude": 30.85503, "longitude": -83.94666, "name": "Taco Bell", "postalCode": "31792", "province": "GA", "websites": "http://www.tacobell.com" }, "geometry": { "type": "Point", "coordinates": [ -83.94666, 30.85503 ] } },
{ "type": "Feature", "properties": { "address": "163 Altama Connector", "city": "Brunswick", "country": "US", "keys": "us/ga/brunswick/163altamaconnector/93075755", "latitude": 31.213987, "longitude": -81.488197, "name": "Arby's", "postalCode": "31525", "province": "GA", "websites": "http://www.arbys.com,http://arbys.com,http://locations.arbys.com/us/ga/brunswick/163-altama-connector.html" }, "geometry": { "type": "Point", "coordinates": [ -81.488197, 31.213987 ] } },
{ "type": "Feature", "properties": { "address": "410 S Columbia Ave Ste Q", "city": "Rincon", "country": "US", "keys": "us/ga/rincon/410scolumbiaavesteq/93075755", "latitude": 32.276586, "longitude": -81.22894, "name": "Arby's", "postalCode": "31326", "province": "GA", "websites": "http://www.arbys.com,http://locations.arbys.com/us/ga/rincon/410-s-columbia-ave-ste-q.html" }, "geometry": { "type": "Point", "coordinates": [ -81.22894, 32.276586 ] } },
{ "type": "Feature", "properties": { "address": "4690 Us Highway 80 E", "city": "Savannah", "country": "US", "keys": "us/ga/savannah/4690ushighway80e/-448666054", "latitude": 32.0436, "longitude": -81.0086, "name": "Five Guys", "postalCode": "31410", "province": "GA", "websites": "http://fiveguys.com" }, "geometry": { "type": "Point", "coordinates": [ -81.0086, 32.0436 ] } },
{ "type": "Feature", "properties": { "address": "13791 US Highway 19 S", "city": "Thomasville", "country": "US", "keys": "us/ga/thomasville/13791ushighway19s/-1947870258", "latitude": 30.8432, "longitude": -83.9477, "name": "Jimmy John's", "postalCode": "31792", "province": "GA", "websites": null }, "geometry": { "type": "Point", "coordinates": [ -83.9477, 30.8432 ] } },
{ "type": "Feature", "properties": { "address": "880 Horizon South Pkwy", "city": "Grovetown", "country": "US", "keys": "us/ga/grovetown/880horizonsouthpkwy/-1161002137", "latitude": 33.45879, "longitude": -82.19286, "name": "McDonald's", "postalCode": "30813", "province": "GA", "websites": "http://mcdonalds.com,http://www.mcdonalds.com/?cid=RF:YXT_FM:TP::Yext:Referral" }, "geometry": { "type": "Point", "coordinates": [ -82.19286, 33.45879 ] } },
{ "type": "Feature", "properties": { "address": "4942 Lanier Islands Pkwy", "city": "Buford", "country": "US", "keys": "us/ga/buford/4942lanierislandspkwy/-1059578798", "latitude": 34.062096, "longitude": -83.99038, "name": "Shoney's on the Go", "postalCode": "30518-1714", "province": "GA", "websites": "http://facebook.com/shoneys" }, "geometry": { "type": "Point", "coordinates": [ -83.99038, 34.062096 ] } },
{ "type": "Feature", "properties": { "address": "6350 Tara Blvd", "city": "Jonesboro", "country": "US", "keys": "us/ga/jonesboro/6350tarablvd/1082608893", "latitude": 33.58099, "longitude": -84.37542, "name": "Waffle House", "postalCode": "30236", "province": "GA", "websites": "https://locations.wafflehouse.com/ga-jonesboro-915" }, "geometry": { "type": "Point", "coordinates": [ -84.37542, 33.58099 ] } },
{ "type": "Feature", "properties": { "address": "1934 Manchester Expy", "city": "Columbus", "country": "US", "keys": "us/ga/columbus/1934manchesterexpy/106088", "latitude": 32.5067, "longitude": -84.9628, "name": "KFC", "postalCode": "31904", "province": "GA", "websites": "http://www.kfc.com" }, "geometry": { "type": "Point", "coordinates": [ -84.9628, 32.5067 ] } },
{ "type": "Feature", "properties": { "address": "5888 Highway 53", "city": "Braselton", "country": "US", "keys": "us/ga/braselton/5888highway53/-1161002137", "latitude": 34.11998, "longitude": -83.76145, "name": "McDonald's", "postalCode": "30517", "province": "GA", "websites": "http://mcdonalds.com,http://www.mcdonalds.com/?cid=RF:YXT_FM:TP::Yext:Referral" }, "geometry": { "type": "Point", "coordinates": [ -83.76145, 34.11998 ] } },
{ "type": "Feature", "properties": { "address": "2815 Keith Bridge Rd", "city": "Cumming", "country": "US", "keys": "us/ga/cumming/2815keithbridgerd/-1161002137", "latitude": 34.25336, "longitude": -84.08925, "name": "McDonald's", "postalCode": "30041", "province": "GA", "websites": "http://mcdonalds.com" }, "geometry": { "type": "Point", "coordinates": [ -84.08925, 34.25336 ] } },
{ "type": "Feature", "properties": { "address": "300 S 2nd St", "city": "Folkston", "country": "US", "keys": "us/ga/folkston/300s2ndst/-1161002137", "latitude": 30.829607, "longitude": -82.005532, "name": "McDonald's", "postalCode": "31537", "province": "GA", "websites": "http://mcdonalds.com" }, "geometry": { "type": "Point", "coordinates": [ -82.005532, 30.829607 ] } },
{ "type": "Feature", "properties": { "address": "1425 Market Blvd Ste 900", "city": "Roswell", "country": "US", "keys": "us/ga/roswell/1425marketblvdste900/-2061630068", "latitude": 34.0181, "longitude": -84.32061, "name": "Burger King", "postalCode": "30076", "province": "GA", "websites": "http://www.bk.com" }, "geometry": { "type": "Point", "coordinates": [ -84.32061, 34.0181 ] } },
{ "type": "Feature", "properties": { "address": "620 Highway 138 Nw", "city": "Monroe", "country": "US", "keys": "us/ga/monroe/620highway138nw/-345832572", "latitude": 33.79065, "longitude": -83.7465, "name": "Chick-fil-A", "postalCode": "30655", "province": "GA", "websites": "http://www.chick-fil-a.com/monroe-ga,http://www.chick-fil-a.com" }, "geometry": { "type": "Point", "coordinates": [ -83.7465, 33.79065 ] } },
{ "type": "Feature", "properties": { "address": "1332 Cumberland Mall SE", "city": "Atlanta", "country": "US", "keys": "us/ga/atlanta/1332cumberlandmallse/1006292089", "latitude": 33.879917, "longitude": -84.471016, "name": "Auntie Anne's", "postalCode": "30339", "province": "GA", "websites": "http://www.auntieannes.com/" }, "geometry": { "type": "Point", "coordinates": [ -84.471016, 33.879917 ] } },
{ "type": "Feature", "properties": { "address": "3990 Martin Luther King Jr Dr SW", "city": "Atlanta", "country": "US", "keys": "us/ga/atlanta/3990martinlutherkingjrdrsw/-791445730", "latitude": 33.7695, "longitude": -84.51971, "name": "Wendy's", "postalCode": "30336", "province": "GA", "websites": "https://locations.wendys.com/atlanta-ga-115,http://wendys.com/" }, "geometry": { "type": "Point", "coordinates": [ -84.51971, 33.7695 ] } },
{ "type": "Feature", "properties": { "address": "2520 Bouldercrest Rd Se", "city": "Atlanta", "country": "US", "keys": "us/ga/atlanta/2520bouldercrestrdse/-1055723171", "latitude": 33.68817, "longitude": -84.31103, "name": "Domino's Pizza", "postalCode": "30316", "province": "GA", "websites": "https://www.dominos.com/en/?redirect=homepage,http://www.dominos.com/" }, "geometry": { "type": "Point", "coordinates": [ -84.31103, 33.68817 ] } },
{ "type": "Feature", "properties": { "address": "3400 Buford Highway NE", "city": "Atlanta", "country": "US", "keys": "us/ga/atlanta/3400bufordhighwayne/572757474", "latitude": 33.845776, "longitude": -84.32576, "name": "Papa John's Pizza", "postalCode": "30329", "province": "GA", "websites": "https://www.papajohns.com" }, "geometry": { "type": "Point", "coordinates": [ -84.32576, 33.845776 ] } },
{ "type": "Feature", "properties": { "address": "4957 Winters Chapel Rd", "city": "Atlanta", "country": "US", "keys": "us/ga/atlanta/4957winterschapelrd/-66712705", "latitude": 33.941355, "longitude": -84.270072, "name": "Pizza Hut", "postalCode": "30360", "province": "GA", "websites": "http://www.pizzahut.com,http://www.pizzahut.com/" }, "geometry": { "type": "Point", "coordinates": [ -84.270072, 33.941355 ] } },
{ "type": "Feature", "properties": { "address": "4511 Chamblee Dunwoody Rd", "city": "Atlanta", "country": "US", "keys": "us/ga/atlanta/4511chambleedunwoodyrd/-891525969", "latitude": 33.922734, "longitude": -84.313791, "name": "Subway", "postalCode": "30338", "province": "GA", "websites": "http://subway.com/" }, "geometry": { "type": "Point", "coordinates": [ -84.313791, 33.922734 ] } },
{ "type": "Feature", "properties": { "address": "2771 Spring Rd SE", "city": "Atlanta", "country": "US", "keys": "us/ga/atlanta/2771springrdse/-66712705", "latitude": 33.88565, "longitude": -84.47257, "name": "Pizza Hut", "postalCode": "30339", "province": "GA", "websites": "http://www.pizzahut.com,http://www.pizzahut.com/" }, "geometry": { "type": "Point", "coordinates": [ -84.47257, 33.88565 ] } },
{ "type": "Feature", "properties": { "address": "2886 Clairmont Rd Ne", "city": "Atlanta", "country": "US", "keys": "us/ga/atlanta/2886clairmontrdne/1082608893", "latitude": 33.841311, "longitude": -84.315281, "name": "Waffle House", "postalCode": "30329", "province": "GA", "websites": "https://locations.wafflehouse.com/ga-atlanta-489,http://wafflehouse.com/" }, "geometry": { "type": "Point", "coordinates": [ -84.315281, 33.841311 ] } },
{ "type": "Feature", "properties": { "address": "3435 Roosevelt Hwy", "city": "Red Oak", "country": "US", "keys": "us/ga/redoak/3435roosevelthwy/-1055723171", "latitude": 33.6221, "longitude": -84.5007, "name": "Domino's Pizza", "postalCode": "30272", "province": "GA", "websites": "https://www.dominos.com/en/?redirect=homepage,http://www.dominos.com/" }, "geometry": { "type": "Point", "coordinates": [ -84.5007, 33.6221 ] } },
{ "type": "Feature", "properties": { "address": "2090 Dunwoody Club Dr", "city": "Atlanta", "country": "US", "keys": "us/ga/atlanta/2090dunwoodyclubdr/-66712705", "latitude": 33.960437, "longitude": -84.300962, "name": "Pizza Hut", "postalCode": "30350", "province": "GA", "websites": "http://www.pizzahut.com/" }, "geometry": { "type": "Point", "coordinates": [ -84.300962, 33.960437 ] } },
{ "type": "Feature", "properties": { "address": "5468 Chamblee Dunwoody Rd", "city": "Atlanta", "country": "US", "keys": "us/ga/atlanta/5468chambleedunwoodyrd/-2061630068", "latitude": 33.947197, "longitude": -84.335702, "name": "Burger King", "postalCode": "30338", "province": "GA", "websites": "http://www.bk.com,http://www.burgerking.com/" }, "geometry": { "type": "Point", "coordinates": [ -84.335702, 33.947197 ] } },
{ "type": "Feature", "properties": { "address": "231 Peachtree St NE", "city": "Atlanta", "country": "US", "keys": "us/ga/atlanta/231peachtreestne/1536894814", "latitude": 33.760366, "longitude": -84.386641, "name": "Checkers", "postalCode": "30303", "province": "GA", "websites": "https://locations.checkers.com/ga/atlanta/231-peachtree-st.-ne,https://www.checkers.com" }, "geometry": { "type": "Point", "coordinates": [ -84.386641, 33.760366 ] } },
{ "type": "Feature", "properties": { "address": "2304 N Druid Hills Rd NE", "city": "Atlanta", "country": "US", "keys": "us/ga/atlanta/2304ndruidhillsrdne/-2061630068", "latitude": 33.82803, "longitude": -84.3305, "name": "Burger King", "postalCode": "30329", "province": "GA", "websites": "http://www.bk.com,http://burgerking.com/" }, "geometry": { "type": "Point", "coordinates": [ -84.3305, 33.82803 ] } },
{ "type": "Feature", "properties": { "address": "8725 Roswell Rd", "city": "Atlanta", "country": "US", "keys": "us/ga/atlanta/8725roswellrd/-1112491379", "latitude": 33.995873, "longitude": -84.349807, "name": "Wingstop", "postalCode": "30350", "province": "GA", "websites": "http://order.wingstop.com/menu/wingstop-76-ATLANTA-GA-30350,http://www.wingstop.com/" }, "geometry": { "type": "Point", "coordinates": [ -84.349807, 33.995873 ] } },
{ "type": "Feature", "properties": { "address": "3330 Cobb Pkwy SE", "city": "Atlanta", "country": "US", "keys": "us/ga/atlanta/3330cobbpkwyse/1770159848", "latitude": 33.87618, "longitude": -84.45619, "name": "Little Caesars Pizza", "postalCode": "30339", "province": "GA", "websites": null }, "geometry": { "type": "Point", "coordinates": [ -84.45619, 33.87618 ] } },
{ "type": "Feature", "properties": { "address": "4334 Fulton Industrial Blvd SW", "city": "Atlanta", "country": "US", "keys": "us/ga/atlanta/4334fultonindustrialblvdsw/-1161002137", "latitude": 33.765451, "longitude": -84.528493, "name": "McDonald's", "postalCode": "30336", "province": "GA", "websites": "http://mcdonalds.com,http://www.mcdonalds.com/usa.html" }, "geometry": { "type": "Point", "coordinates": [ -84.528493, 33.765451 ] } },
{ "type": "Feature", "properties": { "address": "6000 N Terminal Pkwy", "city": "Atlanta", "country": "US", "keys": "us/ga/atlanta/6000nterminalpkwy/-1161002137", "latitude": 33.63564, "longitude": -84.43328, "name": "McDonald's", "postalCode": "30320", "province": "GA", "websites": "http://mcdonalds.com,http://www.mcdonalds.com/?cid=RF:YXT_FM:TP::Yext:Referral" }, "geometry": { "type": "Point", "coordinates": [ -84.43328, 33.63564 ] } },
{ "type": "Feature", "properties": { "address": "3534 Martin Luther King Jr Dr SW", "city": "Atlanta", "country": "US", "keys": "us/ga/atlanta/3534martinlutherkingjrdrsw/-1161002137", "latitude": 33.7577, "longitude": -84.50346, "name": "McDonald's", "postalCode": "30331", "province": "GA", "websites": "http://mcdonalds.com,http://mcdonalds.com/" }, "geometry": { "type": "Point", "coordinates": [ -84.50346, 33.7577 ] } },
{ "type": "Feature", "properties": { "address": "2207 Demere Rd", "city": "Saint Simons Island", "country": "US", "keys": "us/ga/saintsimonsisland/2207demererd/-2061630068", "latitude": 31.160165, "longitude": -81.390485, "name": "Burger King", "postalCode": "31522", "province": "GA", "websites": "http://www.bk.com,https://locations.bk.com/ga/saint-simons-island/2207-demere-rd.html,https://www.bk.com,http://www.burgerking.com/" }, "geometry": { "type": "Point", "coordinates": [ -81.390485, 31.160165 ] } },
{ "type": "Feature", "properties": { "address": "5335 Lawrenceville Hwy NW", "city": "Lilburn", "country": "US", "keys": "us/ga/lilburn/5335lawrencevillehwynw/696490760", "latitude": 33.88759, "longitude": -84.15787, "name": "Hardee's", "postalCode": "30047", "province": "GA", "websites": "http://www.hardees.com" }, "geometry": { "type": "Point", "coordinates": [ -84.15787, 33.88759 ] } },
{ "type": "Feature", "properties": { "address": "2961 Shallowford Rd", "city": "Marietta", "country": "US", "keys": "us/ga/marietta/2961shallowfordrd/-791445730", "latitude": 34.036665, "longitude": -84.464572, "name": "Wendy's", "postalCode": "30066", "province": "GA", "websites": "http://www.wendys.com" }, "geometry": { "type": "Point", "coordinates": [ -84.464572, 34.036665 ] } },
{ "type": "Feature", "properties": { "address": "6297 Roswell Rd", "city": "Atlanta", "country": "US", "keys": "us/ga/atlanta/6297roswellrd/-448666054", "latitude": 33.9263, "longitude": -84.379, "name": "Five Guys", "postalCode": "30328", "province": "GA", "websites": "http://fiveguys.com" }, "geometry": { "type": "Point", "coordinates": [ -84.379, 33.9263 ] } },
{ "type": "Feature", "properties": { "address": "3417 Wrightsboro Rd", "city": "Augusta", "country": "US", "keys": "us/ga/augusta/3417wrightsborord/1082608893", "latitude": 33.468052, "longitude": -82.076714, "name": "Waffle House", "postalCode": "30909", "province": "GA", "websites": "https://locations.wafflehouse.com/ga-augusta-361" }, "geometry": { "type": "Point", "coordinates": [ -82.076714, 33.468052 ] } },
{ "type": "Feature", "properties": { "address": "5413 Whittlesey Blvd", "city": "Columbus", "country": "US", "keys": "us/ga/columbus/5413whittleseyblvd/-448666054", "latitude": 32.54208, "longitude": -84.94917, "name": "Five Guys", "postalCode": "31909", "province": "GA", "websites": "http://fiveguys.com" }, "geometry": { "type": "Point", "coordinates": [ -84.94917, 32.54208 ] } },
{ "type": "Feature", "properties": { "address": "4938 New Jesup Hwy", "city": "Brunswick", "country": "US", "keys": "us/ga/brunswick/4938newjesuphwy/-791445730", "latitude": 31.217, "longitude": -81.5178, "name": "Wendy's", "postalCode": "31520", "province": "GA", "websites": "http://www.wendys.com" }, "geometry": { "type": "Point", "coordinates": [ -81.5178, 31.217 ] } },
{ "type": "Feature", "properties": { "address": "1605 North Slappey Blvd", "city": "Albany", "country": "US", "keys": "us/ga/albany/1605northslappeyblvd/-442344130", "latitude": 31.598988, "longitude": -84.176389, "name": "Krystal", "postalCode": "31701", "province": "GA", "websites": "http://t.co/3VQiWtMxPf,http://www.krystal.com/locations/georgia/albany-north-slappey-boulevard/" }, "geometry": { "type": "Point", "coordinates": [ -84.176389, 31.598988 ] } },
{ "type": "Feature", "properties": { "address": "4727 Altama Avenue", "city": "Brunswick", "country": "US", "keys": "us/ga/brunswick/4727altamaavenue/1780593795", "latitude": 31.1979, "longitude": -81.4856, "name": "SONIC Drive In", "postalCode": "31520", "province": "GA", "websites": "https://locations.sonicdrivein.com/ga/brunswick/4727-altama-avenue.html" }, "geometry": { "type": "Point", "coordinates": [ -81.4856, 31.1979 ] } },
{ "type": "Feature", "properties": { "address": "1960 Barnett Shoals Rd", "city": "Athens", "country": "US", "keys": "us/ga/athens/1960barnettshoalsrd/-2061630068", "latitude": 33.92417, "longitude": -83.34074, "name": "Burger King", "postalCode": "30605", "province": "GA", "websites": "http://www.bk.com,https://locations.bk.com/ga/athens/1960-barnett-shoals-rd.html" }, "geometry": { "type": "Point", "coordinates": [ -83.34074, 33.92417 ] } },
{ "type": "Feature", "properties": { "address": "1085 Prince Avenue", "city": "Athens", "country": "US", "keys": "us/ga/athens/1085princeavenue/-442344130", "latitude": 33.961899, "longitude": -83.395299, "name": "Krystal", "postalCode": "30606", "province": "GA", "websites": "http://t.co/3VQiWtMxPf,http://www.krystal.com/locations/georgia/athens-prince-avenue/" }, "geometry": { "type": "Point", "coordinates": [ -83.395299, 33.961899 ] } },
{ "type": "Feature", "properties": { "address": "1821 Glynn Ave Hwy 17", "city": "Brunswick", "country": "US", "keys": "us/ga/brunswick/1821glynnavehwy17/-1161002137", "latitude": 31.1575, "longitude": -81.4797, "name": "McDonalds", "postalCode": "31520", "province": "GA", "websites": "http://mcdonalds.com,http://www.mcdonalds.com/?cid=RF:YXT_FM:TP::Yext:Referral" }, "geometry": { "type": "Point", "coordinates": [ -81.4797, 31.1575 ] } },
{ "type": "Feature", "properties": { "address": "10003 Abercorn Street", "city": "Savannah", "country": "US", "keys": "us/ga/savannah/10003abercornstreet/-442344130", "latitude": 31.9915, "longitude": -81.1308, "name": "Krystal", "postalCode": "31406", "province": "GA", "websites": "http://www.krystal.com/locations/georgia/savannah-abercorn-frontage-road/" }, "geometry": { "type": "Point", "coordinates": [ -81.1308, 31.9915 ] } },
{ "type": "Feature", "properties": { "address": "2383 Whitesville Road", "city": "Lagrange", "country": "US", "keys": "us/ga/lagrange/2383whitesvilleroad/93075755", "latitude": 32.9914, "longitude": -85.0291, "name": "Arby's", "postalCode": "30240", "province": "GA", "websites": "http://www.arbys.com,http://locations.arbys.com/us/ga/la-grange/2383-whitesville-road.html" }, "geometry": { "type": "Point", "coordinates": [ -85.0291, 32.9914 ] } },
{ "type": "Feature", "properties": { "address": "114 Commerce Avenue", "city": "Lagrange", "country": "US", "keys": "us/ga/lagrange/114commerceavenue/-442344130", "latitude": 33.048956, "longitude": -85.026821, "name": "Krystal", "postalCode": "30240", "province": "GA", "websites": "http://t.co/3VQiWtMxPf,http://www.krystal.com/locations/georgia/lagrange-commerce-avenue/" }, "geometry": { "type": "Point", "coordinates": [ -85.026821, 33.048956 ] } },
{ "type": "Feature", "properties": { "address": "2114 Shorter Ave NW", "city": "Rome", "country": "US", "keys": "us/ga/rome/2114shorteravenw/-2061630068", "latitude": 34.27156, "longitude": -85.22555, "name": "Burger King", "postalCode": "30165", "province": "GA", "websites": "http://www.bk.com" }, "geometry": { "type": "Point", "coordinates": [ -85.22555, 34.27156 ] } },
{ "type": "Feature", "properties": { "address": "3046 Bankhead Hwy", "city": "Austell", "country": "US", "keys": "us/ga/austell/3046bankheadhwy/-1055723171", "latitude": 33.80496, "longitude": -84.63687, "name": "Dominos Pizza", "postalCode": "30168", "province": "GA", "websites": "http://dominos.com,http://www.dominos.com" }, "geometry": { "type": "Point", "coordinates": [ -84.63687, 33.80496 ] } },
{ "type": "Feature", "properties": { "address": "810 Archway Drive", "city": "Statesboro", "country": "US", "keys": "us/ga/statesboro/810archwaydrive/-1161002137", "latitude": 32.412, "longitude": -81.767, "name": "McDonald's", "postalCode": "30458", "province": "GA", "websites": "http://mcdonalds.com,http://www.mcdonalds.com/?cid=RF:YXT_FM:TP::Yext:Referral" }, "geometry": { "type": "Point", "coordinates": [ -81.767, 32.412 ] } },
{ "type": "Feature", "properties": { "address": "903 US Hwy 80", "city": "Pooler", "country": "US", "keys": "us/ga/pooler/903ushwy80/-1161002137", "latitude": 32.111294, "longitude": -81.236404, "name": "McDonald's", "postalCode": "31322", "province": "GA", "websites": "http://mcdonalds.com,http://www.mcdonalds.com/?cid=RF:YXT_FM:TP::Yext:Referral" }, "geometry": { "type": "Point", "coordinates": [ -81.236404, 32.111294 ] } },
{ "type": "Feature", "properties": { "address": "1570 Buford Hwy", "city": "Buford", "country": "US", "keys": "us/ga/buford/1570bufordhwy/1082608893", "latitude": 34.097703, "longitude": -84.012426, "name": "Waffle House", "postalCode": "30518", "province": "GA", "websites": "https://locations.wafflehouse.com/ga-buford-795" }, "geometry": { "type": "Point", "coordinates": [ -84.012426, 34.097703 ] } },
{ "type": "Feature", "properties": { "address": "5071 Peachtree Industrial Blvd", "city": "Atlanta", "country": "US", "keys": "us/ga/atlanta/5071peachtreeindustrialblvd/1082608893", "latitude": 33.8876, "longitude": -84.3136, "name": "Waffle House", "postalCode": "30341", "province": "GA", "websites": "https://locations.wafflehouse.com/ga-chamblee-786" }, "geometry": { "type": "Point", "coordinates": [ -84.3136, 33.8876 ] } },
{ "type": "Feature", "properties": { "address": "343 S Belair Road", "city": "Augusta", "country": "US", "keys": "us/ga/augusta/343sbelairroad/1241037051", "latitude": 33.488394, "longitude": -82.135679, "name": "Bojangles' Famous Chicken 'n Biscuits", "postalCode": "30907", "province": "GA", "websites": "http://www.bojangles.com" }, "geometry": { "type": "Point", "coordinates": [ -82.135679, 33.488394 ] } },
{ "type": "Feature", "properties": { "address": "130 Carter St", "city": "Hinesville", "country": "US", "keys": "us/ga/hinesville/130carterst/1241037051", "latitude": 31.84287, "longitude": -81.59632, "name": "Bojangles' Famous Chicken 'n Biscuits", "postalCode": "31313", "province": "GA", "websites": "http://www.bojotogo.com,http://locations.bojangles.com/ga/hinesville/130-carter-street.html" }, "geometry": { "type": "Point", "coordinates": [ -81.59632, 31.84287 ] } },
{ "type": "Feature", "properties": { "address": "2148 Lawrenceville Hwy", "city": "Decatur", "country": "US", "keys": "us/ga/decatur/2148lawrencevillehwy/1536894814", "latitude": 33.810054, "longitude": -84.27391, "name": "Checkers", "postalCode": "30033", "province": "GA", "websites": null }, "geometry": { "type": "Point", "coordinates": [ -84.27391, 33.810054 ] } },
{ "type": "Feature", "properties": { "address": "3695 Kings Hwy Ste A", "city": "Douglasville", "country": "US", "keys": "us/ga/douglasville/3695kingshwystea/-1055723171", "latitude": 33.70485, "longitude": -84.77148, "name": "Domino's Pizza", "postalCode": "30135", "province": "GA", "websites": "https://www.dominos.com/en/?redirect=homepage,https://www.dominos.com/en/?redirect=homepageandutm_source=locallistingsandutm_medium=loclistandutm_campaign=localmaps,https://www.dominos.com/en/?redirect=homepageandutm_source=yextandutm_medium=loclistandut" }, "geometry": { "type": "Point", "coordinates": [ -84.77148, 33.70485 ] } },
{ "type": "Feature", "properties": { "address": "100 W De Renne Ave", "city": "Savannah", "country": "US", "keys": "us/ga/savannah/100wderenneave/1536894814", "latitude": 32.02979, "longitude": -81.112896, "name": "Checkers", "postalCode": "31405", "province": "GA", "websites": "https://locations.checkers.com/ga/savannah/100-w-de-renne-ave,https://www.checkers.com" }, "geometry": { "type": "Point", "coordinates": [ -81.112896, 32.02979 ] } },
{ "type": "Feature", "properties": { "address": "9135 Roosevelt Hwy", "city": "Palmetto", "country": "US", "keys": "us/ga/palmetto/9135roosevelthwy/1241037051", "latitude": 33.529248, "longitude": -84.659912, "name": "Bojangles' Famous Chicken 'n Biscuits", "postalCode": "30268", "province": "GA", "websites": "https://locations.bojangles.com/ga/palmetto/9135-roosevelt-hwy.html,http://www.bojangles.com,http://locations.bojangles.com/ga/palmetto/9135-roosevelt-hwy.html" }, "geometry": { "type": "Point", "coordinates": [ -84.659912, 33.529248 ] } },
{ "type": "Feature", "properties": { "address": "2420 Wisteria Dr Ste 1", "city": "Snellville", "country": "US", "keys": "us/ga/snellville/2420wisteriadrste1/-1055723171", "latitude": 33.85697, "longitude": -84.00959, "name": "Domino's Pizza", "postalCode": "30078", "province": "GA", "websites": "https://www.dominos.com/en/?redirect=homepage,https://www.dominos.com/en/?redirect=homepageandutm_source=yextandutm_medium=loclistandutm_campaign=localmaps" }, "geometry": { "type": "Point", "coordinates": [ -84.00959, 33.85697 ] } },
{ "type": "Feature", "properties": { "address": "6778 Hickory Flat Hwy", "city": "Canton", "country": "US", "keys": "us/ga/canton/6778hickoryflathwy/1121518186", "latitude": 34.17011, "longitude": -84.4142, "name": "Culver's", "postalCode": "30115", "province": "GA", "websites": "http://www.culvers.com,http://www.culvers.com/restaurants/platte-city-mo-prairie-view" }, "geometry": { "type": "Point", "coordinates": [ -84.4142, 34.17011 ] } },
{ "type": "Feature", "properties": { "address": "7660 Schomburg Road", "city": "Columbus", "country": "US", "keys": "us/ga/columbus/7660schomburgroad/1241037051", "latitude": 32.55969, "longitude": -84.905862, "name": "Bojangles' Famous Chicken 'n Biscuits", "postalCode": "31909", "province": "GA", "websites": "http://locations.bojangles.com/ga/columbus/7660-schomburg-road.html" }, "geometry": { "type": "Point", "coordinates": [ -84.905862, 32.55969 ] } },
{ "type": "Feature", "properties": { "address": "400 E 1st St", "city": "Vidalia", "country": "US", "keys": "us/ga/vidalia/400e1stst/-864103396", "latitude": 32.214938, "longitude": -82.407047, "name": "Taco Bell", "postalCode": "30474", "province": "GA", "websites": "http://www.tacobell.com,https://locations.tacobell.com/ga/vidalia/400-east-1st.html?utm_source=yextandutm_campaign=yextpowerlistingsandutm_medium=referralandutm_term=029077andutm_content=website" }, "geometry": { "type": "Point", "coordinates": [ -82.407047, 32.214938 ] } },
{ "type": "Feature", "properties": { "address": "56 School St", "city": "Ellijay", "country": "US", "keys": "us/ga/ellijay/56schoolst/93075755", "latitude": 34.68424, "longitude": -84.4751, "name": "Arby's", "postalCode": "30540", "province": "GA", "websites": "http://www.arbys.com,https://locations.arbys.com/us/ga/east-ellijay/56-school-st.html,http://locations.arbys.com/us/ga/east-ellijay/56-school-st.html" }, "geometry": { "type": "Point", "coordinates": [ -84.4751, 34.68424 ] } },
{ "type": "Feature", "properties": { "address": "50 Georgia 400", "city": "Dawsonville", "country": "US", "keys": "us/ga/dawsonville/50georgia400/-1161002137", "latitude": 34.3635, "longitude": -84.0377, "name": "McDonald's", "postalCode": "30534", "province": "GA", "websites": "http://mcdonalds.com,http://www.mcdonalds.com/?cid=RF:YXT_FM:TP::Yext:Referral" }, "geometry": { "type": "Point", "coordinates": [ -84.0377, 34.3635 ] } },
{ "type": "Feature", "properties": { "address": "507 S Main St", "city": "Swainsboro", "country": "US", "keys": "us/ga/swainsboro/507smainst/1780593795", "latitude": 32.58516, "longitude": -82.32189, "name": "SONIC Drive In", "postalCode": "30401", "province": "GA", "websites": "http://sonicdrivein.com,https://locations.sonicdrivein.com/ga/swainsboro/507-s--main.html" }, "geometry": { "type": "Point", "coordinates": [ -82.32189, 32.58516 ] } },
{ "type": "Feature", "properties": { "address": "300 Ga Highway 49 N", "city": "Byron", "country": "US", "keys": "us/ga/byron/300gahighway49n/-442344130", "latitude": 32.66015, "longitude": -83.74265, "name": "Krystal", "postalCode": "31008", "province": "GA", "websites": "http://www.krystal.com/locations/georgia/byron-300-georgia-highway-49-n,http://t.co/3VQiWtMxPf" }, "geometry": { "type": "Point", "coordinates": [ -83.74265, 32.66015 ] } },
{ "type": "Feature", "properties": { "address": "2265 Towne Lake Pkwy Ste 104", "city": "Woodstock", "country": "US", "keys": "us/ga/woodstock/2265townelakepkwyste104/-1055723171", "latitude": 34.1116, "longitude": -84.55355, "name": "Domino's Pizza", "postalCode": "30189", "province": "GA", "websites": "https://www.dominos.com/en/?redirect=homepage,https://www.dominos.com/en/?redirect=homepageandutm_source=locallistingsandutm_medium=loclistandutm_campaign=localmaps,https://www.dominos.com/en/?redirect=homepageandutm_source=yextandutm_medium=loclistandut" }, "geometry": { "type": "Point", "coordinates": [ -84.55355, 34.1116 ] } },
{ "type": "Feature", "properties": { "address": "2922 Watson Blvd Ste 840", "city": "Centerville", "country": "US", "keys": "us/ga/centerville/2922watsonblvdste840/-345832572", "latitude": 32.62046, "longitude": -83.68719, "name": "Chick-fil-A", "postalCode": "31028", "province": "GA", "websites": "http://www.chick-fil-a.com/galleriaatcenterville,http://www.chick-fil-a.com" }, "geometry": { "type": "Point", "coordinates": [ -83.68719, 32.62046 ] } },
{ "type": "Feature", "properties": { "address": "4622 Memorial Dr", "city": "Decatur", "country": "US", "keys": "us/ga/decatur/4622memorialdr/-2061630068", "latitude": 33.780169, "longitude": -84.239402, "name": "Burger King", "postalCode": "30032", "province": "GA", "websites": "http://www.bk.com" }, "geometry": { "type": "Point", "coordinates": [ -84.239402, 33.780169 ] } },
{ "type": "Feature", "properties": { "address": "Marne Road I185", "city": "Fort Benning", "country": "US", "keys": "us/ga/fortbenning/marneroadi185/-864103396,us/ga/fortbenning/marneroadi185/-864103396", "latitude": 32.376167, "longitude": -84.92335, "name": "Taco Bell", "postalCode": "31905", "province": "GA", "websites": "http://tacobell.com,http://www.tacobell.com" }, "geometry": { "type": "Point", "coordinates": [ -84.92335, 32.376167 ] } },
{ "type": "Feature", "properties": { "address": "5428 Whittlesey Blvd", "city": "Columbus", "country": "US", "keys": "us/ga/columbus/5428whittleseyblvd/-1161002137", "latitude": 32.54165, "longitude": -84.94933, "name": "McDonald's", "postalCode": "31909", "province": "GA", "websites": "http://mcdonalds.com,http://www.mcdonalds.com/?cid=RF:YXT_FM:TP::Yext:Referral" }, "geometry": { "type": "Point", "coordinates": [ -84.94933, 32.54165 ] } },
{ "type": "Feature", "properties": { "address": "3175 Roswell Rd NE Ste B", "city": "Atlanta", "country": "US", "keys": "us/ga/atlanta/3175roswellrdnesteb/-1055723171", "latitude": 33.84174, "longitude": -84.37831, "name": "Domino's Pizza", "postalCode": "30305", "province": "GA", "websites": "https://www.dominos.com/en/?redirect=homepage,https://www.dominos.com/en/?redirect=homepageandutm_source=yextandutm_medium=loclistandutm_campaign=localmaps" }, "geometry": { "type": "Point", "coordinates": [ -84.37831, 33.84174 ] } },
{ "type": "Feature", "properties": { "address": "6130 Roswell Rd", "city": "Atlanta", "country": "US", "keys": "us/ga/atlanta/6130roswellrd/-1055723171", "latitude": 33.92262, "longitude": -84.37929, "name": "Domino's Pizza", "postalCode": "30328", "province": "GA", "websites": "https://www.dominos.com/en/?redirect=homepage,https://www.dominos.com/en/?redirect=homepageandutm_source=yextandutm_medium=loclistandutm_campaign=localmaps" }, "geometry": { "type": "Point", "coordinates": [ -84.37929, 33.92262 ] } },
{ "type": "Feature", "properties": { "address": "1595 Highway 23", "city": "Buford", "country": "US", "keys": "us/ga/buford/1595highway23/-442344130", "latitude": 34.097534, "longitude": -84.010807, "name": "Krystal", "postalCode": "30518", "province": "GA", "websites": "http://t.co/3VQiWtMxPf" }, "geometry": { "type": "Point", "coordinates": [ -84.010807, 34.097534 ] } },
{ "type": "Feature", "properties": { "address": "600 Hopkins Corner Dr", "city": "Waynesboro", "country": "US", "keys": "us/ga/waynesboro/600hopkinscornerdr/-864103396", "latitude": 33.10519, "longitude": -82.02386, "name": "Taco Bell", "postalCode": "30830", "province": "GA", "websites": "http://www.tacobell.com,https://locations.tacobell.com/ga/waynesboro/600-hopkins-corner-drive.html?utm_source=yextandutm_campaign=yextpowerlistingsandutm_medium=referralandutm_term=E960038andutm_content=website" }, "geometry": { "type": "Point", "coordinates": [ -82.02386, 33.10519 ] } },
{ "type": "Feature", "properties": { "address": "4205 Fulton Industrial Blvd SW", "city": "Atlanta", "country": "US", "keys": "us/ga/atlanta/4205fultonindustrialblvdsw/696490760", "latitude": 33.76818, "longitude": -84.52511, "name": "Hardee's", "postalCode": "30336", "province": "GA", "websites": "http://www.hardees.com" }, "geometry": { "type": "Point", "coordinates": [ -84.52511, 33.76818 ] } },
{ "type": "Feature", "properties": { "address": "877 W Oglethorpe Hwy", "city": "Hinesville", "country": "US", "keys": "us/ga/hinesville/877woglethorpehwy/-345832572", "latitude": 31.82091, "longitude": -81.60017, "name": "Chick-Fil-A", "postalCode": "31313", "province": "GA", "websites": "http://www.chick-fil-a.com" }, "geometry": { "type": "Point", "coordinates": [ -81.60017, 31.82091 ] } },
{ "type": "Feature", "properties": { "address": "3316 N Cobb Pky", "city": "Acworth", "country": "US", "keys": "us/ga/acworth/3316ncobbpky/-1161002137", "latitude": 34.0351, "longitude": -84.6759, "name": "McDonald's", "postalCode": "30101", "province": "GA", "websites": "http://mcdonalds.com,http://www.mcdonalds.com/?cid=RF:YXT_FM:TP::Yext:Referral" }, "geometry": { "type": "Point", "coordinates": [ -84.6759, 34.0351 ] } },
{ "type": "Feature", "properties": { "address": "2621 Dawson Road", "city": "Albany", "country": "US", "keys": "us/ga/albany/2621dawsonroad/-442344130", "latitude": 31.617182, "longitude": -84.220644, "name": "Krystal", "postalCode": "31707", "province": "GA", "websites": "http://t.co/3VQiWtMxPf,http://www.krystal.com/locations/georgia/albany-dawson-road/" }, "geometry": { "type": "Point", "coordinates": [ -84.220644, 31.617182 ] } },
{ "type": "Feature", "properties": { "address": "2824 Lexington Rd", "city": "Athens", "country": "US", "keys": "us/ga/athens/2824lexingtonrd/-1055723171", "latitude": 33.9416, "longitude": -83.33083, "name": "Domino's Pizza", "postalCode": "30605", "province": "GA", "websites": "https://www.dominos.com/en/?redirect=homepage,https://www.dominos.com/en/?redirect=homepageandutm_source=yextandutm_medium=loclistandutm_campaign=localmaps" }, "geometry": { "type": "Point", "coordinates": [ -83.33083, 33.9416 ] } },
{ "type": "Feature", "properties": { "address": "412 S Main St", "city": "Swainsboro", "country": "US", "keys": "us/ga/swainsboro/412smainst/-864103396", "latitude": 32.58939, "longitude": -82.32748, "name": "Taco Bell", "postalCode": "30401", "province": "GA", "websites": "https://locations.tacobell.com/ga/swainsboro/412-south-main-street.html?utm_source=yextandutm_campaign=yextpowerlistingsandutm_medium=referralandutm_term=031086andutm_content=website" }, "geometry": { "type": "Point", "coordinates": [ -82.32748, 32.58939 ] } },
{ "type": "Feature", "properties": { "address": "1791 Epps Bridge Pkwy", "city": "Athens", "country": "US", "keys": "us/ga/athens/1791eppsbridgepkwy/-1161002137", "latitude": 33.916665, "longitude": -83.444062, "name": "McDonald's", "postalCode": "30606", "province": "GA", "websites": "http://mcdonalds.com,http://www.mcdonalds.com/?cid=RF:YXT_FM:TP::Yext:Referral" }, "geometry": { "type": "Point", "coordinates": [ -83.444062, 33.916665 ] } },
{ "type": "Feature", "properties": { "address": "1720 Walton Way", "city": "Augusta", "country": "US", "keys": "us/ga/augusta/1720waltonway/1536894814", "latitude": 33.475292, "longitude": -81.995946, "name": "Checkers", "postalCode": "30904", "province": "GA", "websites": "https://locations.checkers.com/ga/augusta/1720-walton-way,https://www.checkers.com" }, "geometry": { "type": "Point", "coordinates": [ -81.995946, 33.475292 ] } },
{ "type": "Feature", "properties": { "address": "3409 Mercer University Dr", "city": "Macon", "country": "US", "keys": "us/ga/macon/3409merceruniversitydr/1536894814", "latitude": 32.82081, "longitude": -83.68963, "name": "Checkers", "postalCode": "31204", "province": "GA", "websites": "https://locations.checkers.com/ga/macon/3409-mercer-university-drive,https://www.checkers.com" }, "geometry": { "type": "Point", "coordinates": [ -83.68963, 32.82081 ] } },
{ "type": "Feature", "properties": { "address": "271 Cobb Pkwy S", "city": "Marietta", "country": "US", "keys": "us/ga/marietta/271cobbpkwys/-442344130", "latitude": 33.94521, "longitude": -84.51691, "name": "Krystal", "postalCode": "30060", "province": "GA", "websites": "http://krystal.com,http://www.krystal.com/locations/georgia/marietta-south-cobb-parkway" }, "geometry": { "type": "Point", "coordinates": [ -84.51691, 33.94521 ] } },
{ "type": "Feature", "properties": { "address": "7348 Spout Springs Rd", "city": "Flowery Branch", "country": "US", "keys": "us/ga/flowerybranch/7348spoutspringsrd/-791445730", "latitude": 34.11054, "longitude": -83.8752, "name": "Wendy's", "postalCode": "30542", "province": "GA", "websites": "http://www.wendys.com" }, "geometry": { "type": "Point", "coordinates": [ -83.8752, 34.11054 ] } },
{ "type": "Feature", "properties": { "address": "1785 Cobb Pkwy S", "city": "Marietta", "country": "US", "keys": "us/ga/marietta/1785cobbpkwys/-1161002137", "latitude": 33.90937, "longitude": -84.49028, "name": "McDonald's", "postalCode": "30060", "province": "GA", "websites": "http://mcdonalds.com,http://www.mcdonalds.com/?cid=RF:YXT_FM:TP::Yext:Referral" }, "geometry": { "type": "Point", "coordinates": [ -84.49028, 33.90937 ] } },
{ "type": "Feature", "properties": { "address": "41 Cobb Pkwy S", "city": "Marietta", "country": "US", "keys": "us/ga/marietta/41cobbpkwys/1536894814", "latitude": 33.95028, "longitude": -84.51965, "name": "Checkers", "postalCode": "30060", "province": "GA", "websites": "https://locations.checkers.com/ga/marietta/41-cobb-parkway-s.e.,https://www.checkers.com" }, "geometry": { "type": "Point", "coordinates": [ -84.51965, 33.95028 ] } },
{ "type": "Feature", "properties": { "address": "2801 E Pinetree Blvd", "city": "Thomasville", "country": "US", "keys": "us/ga/thomasville/2801epinetreeblvd/1780593795", "latitude": 30.85289, "longitude": -83.95133, "name": "SONIC Drive In", "postalCode": "31792", "province": "GA", "websites": "https://locations.sonicdrivein.com/ga/thomasville/2801-e--pinetree.html" }, "geometry": { "type": "Point", "coordinates": [ -83.95133, 30.85289 ] } },
{ "type": "Feature", "properties": { "address": "8550 Roswell Rd", "city": "Atlanta", "country": "US", "keys": "us/ga/atlanta/8550roswellrd/1241037051", "latitude": 33.98713, "longitude": -84.35143, "name": "Bojangles' Famous Chicken 'n Biscuits", "postalCode": "30350", "province": "GA", "websites": "http://www.bojangles.com,http://locations.bojangles.com/ga/sandy-springs/8550-roswell-road.html" }, "geometry": { "type": "Point", "coordinates": [ -84.35143, 33.98713 ] } },
{ "type": "Feature", "properties": { "address": "1025 Highway 34 E", "city": "Newnan", "country": "US", "keys": "us/ga/newnan/1025highway34e/1536894814", "latitude": 33.39408, "longitude": -84.74383, "name": "Checkers", "postalCode": "30265", "province": "GA", "websites": "https://locations.checkers.com/ga/newnan/1025-hwy-34-e,https://www.checkers.com" }, "geometry": { "type": "Point", "coordinates": [ -84.74383, 33.39408 ] } },
{ "type": "Feature", "properties": { "address": "460 Northside Dr E", "city": "Statesboro", "country": "US", "keys": "us/ga/statesboro/460northsidedre/-1161002137", "latitude": 32.43899, "longitude": -81.76241, "name": "McDonald's", "postalCode": "30458", "province": "GA", "websites": "http://mcdonalds.com,http://www.mcdonalds.com/?cid=RF:YXT_FM:TP::Yext:Referral" }, "geometry": { "type": "Point", "coordinates": [ -81.76241, 32.43899 ] } },
{ "type": "Feature", "properties": { "address": "5175 S Old Peachtree Rd", "city": "Norcross", "country": "US", "keys": "us/ga/norcross/5175soldpeachtreerd/-1055723171", "latitude": 33.96943, "longitude": -84.20726, "name": "Domino's Pizza", "postalCode": "30092", "province": "GA", "websites": "https://www.dominos.com/en/?redirect=homepage,https://www.dominos.com/en/?redirect=homepageandutm_source=yextandutm_medium=loclistandutm_campaign=localmaps" }, "geometry": { "type": "Point", "coordinates": [ -84.20726, 33.96943 ] } },
{ "type": "Feature", "properties": { "address": "9961 Highway 92", "city": "Woodstock", "country": "US", "keys": "us/ga/woodstock/9961highway92/-1161002137", "latitude": 34.08651, "longitude": -84.52241, "name": "McDonald's", "postalCode": "30188", "province": "GA", "websites": "http://mcdonalds.com,http://www.mcdonalds.com/?cid=RF:YXT_FM:TP::Yext:Referral" }, "geometry": { "type": "Point", "coordinates": [ -84.52241, 34.08651 ] } },
{ "type": "Feature", "properties": { "address": "1031 Franklin Springs St", "city": "Royston", "country": "US", "keys": "us/ga/royston/1031franklinspringsst/696490760", "latitude": 34.28467, "longitude": -83.12738, "name": "Hardee's", "postalCode": "30662", "province": "GA", "websites": "http://www.hardees.com" }, "geometry": { "type": "Point", "coordinates": [ -83.12738, 34.28467 ] } },
{ "type": "Feature", "properties": { "address": "526 Ponce De Leon Blvd", "city": "Atlanta", "country": "US", "keys": "us/ga/atlanta/526poncedeleonblvd/-1161002137", "latitude": 33.7743, "longitude": -84.3696, "name": "McDonald's", "postalCode": "30308", "province": "GA", "websites": "http://mcdonalds.com,http://www.mcdonalds.com/?cid=RF:YXT_FM:TP::Yext:Referral" }, "geometry": { "type": "Point", "coordinates": [ -84.3696, 33.7743 ] } },
{ "type": "Feature", "properties": { "address": "793 GA Highway 96", "city": "Bonaire", "country": "US", "keys": "us/ga/bonaire/793gahighway96/-1161002137", "latitude": 32.55498, "longitude": -83.66166, "name": "McDonald's", "postalCode": "31005", "province": "GA", "websites": "http://mcdonalds.com,http://www.mcdonalds.com/?cid=RF:YXT_FM:TP::Yext:Referral" }, "geometry": { "type": "Point", "coordinates": [ -83.66166, 32.55498 ] } },
{ "type": "Feature", "properties": { "address": "8 N Broad St", "city": "Winder", "country": "US", "keys": "us/ga/winder/8nbroadst/-1161002137", "latitude": 33.99132, "longitude": -83.72317, "name": "McDonald's", "postalCode": "30680", "province": "GA", "websites": "http://mcdonalds.com,http://www.mcdonalds.com/?cid=RF:YXT_FM:TP::Yext:Referral" }, "geometry": { "type": "Point", "coordinates": [ -83.72317, 33.99132 ] } },
{ "type": "Feature", "properties": { "address": "3075 Old Atlanta Rd", "city": "Cumming", "country": "US", "keys": "us/ga/cumming/3075oldatlantard/2135121939", "latitude": 34.112624541000002, "longitude": -84.153218357, "name": "McDonalds @ Old Atlanta", "postalCode": "30041", "province": "GA", "websites": "http://mcdonalds.com" }, "geometry": { "type": "Point", "coordinates": [ -84.153218357, 34.112624541 ] } },
{ "type": "Feature", "properties": { "address": "883 Shugart Rd", "city": "Dalton", "country": "US", "keys": "us/ga/dalton/883shugartrd/1536894814", "latitude": 34.79093, "longitude": -84.99719, "name": "Checkers", "postalCode": "30720", "province": "GA", "websites": "https://locations.checkers.com/ga/dalton/883-shugart-road,https://www.checkers.com,http://www.checkers.com" }, "geometry": { "type": "Point", "coordinates": [ -84.99719, 34.79093 ] } },
{ "type": "Feature", "properties": { "address": "302 Mall Blvd", "city": "Savannah", "country": "US", "keys": "us/ga/savannah/302mallblvd/-864103396", "latitude": 32.004698, "longitude": -81.113831, "name": "Taco Bell", "postalCode": "31406", "province": "GA", "websites": "http://www.tacobell.com,https://locations.tacobell.com/ga/savannah/302-mall-blvd.html?utm_source=yextandutm_campaign=yextpowerlistingsandutm_medium=referralandutm_term=027952andutm_content=website,https://locations.tacobell.com/ga/savannah/302-mall-blvd." }, "geometry": { "type": "Point", "coordinates": [ -81.113831, 32.004698 ] } },
{ "type": "Feature", "properties": { "address": "206 Columbia St", "city": "Blakely", "country": "US", "keys": "us/al/blakely/206columbiast/-1161002137", "latitude": 31.375119, "longitude": -84.936603883000004, "name": "Mcdonald's", "postalCode": "39823", "province": "AL", "websites": "http://mcdonalds.com" }, "geometry": { "type": "Point", "coordinates": [ -84.936603883, 31.375119 ] } },
{ "type": "Feature", "properties": { "address": "2735 Mosley St", "city": "Austell", "country": "US", "keys": "us/ga/austell/2735mosleyst/-2061630068", "latitude": 33.812945954, "longitude": -84.633432736000003, "name": "Burger King", "postalCode": "30168", "province": "GA", "websites": null }, "geometry": { "type": "Point", "coordinates": [ -84.633432736, 33.812945954 ] } },
{ "type": "Feature", "properties": { "address": "4720 Alabama Rd NE", "city": "Roswell", "country": "US", "keys": "us/ga/roswell/4720alabamardne/-1278244220", "latitude": 34.064639405999998, "longitude": -84.423311036000001, "name": "KFC/Taco Bell", "postalCode": "30075", "province": "GA", "websites": "http://www.kfc.com" }, "geometry": { "type": "Point", "coordinates": [ -84.423311036, 34.064639406 ] } },
{ "type": "Feature", "properties": { "address": "450 W Belmont Dr", "city": "Calhoun", "country": "US", "keys": "us/ga/calhoun/450wbelmontdr/-1161002137", "latitude": 34.480913, "longitude": -84.944842, "name": "McDonald's", "postalCode": "30701", "province": "GA", "websites": "http://mcdonalds.com" }, "geometry": { "type": "Point", "coordinates": [ -84.944842, 34.480913 ] } },
{ "type": "Feature", "properties": { "address": "313 Stanley K Tanger Blvd", "city": "Locust Grove", "country": "US", "keys": "us/ga/locustgrove/313stanleyktangerblvd/106088", "latitude": 33.3521, "longitude": -84.1208, "name": "KFC", "postalCode": "30248", "province": "GA", "websites": "http://www.kfc.com,http://kfc.com" }, "geometry": { "type": "Point", "coordinates": [ -84.1208, 33.3521 ] } },
{ "type": "Feature", "properties": { "address": "4292 Washington Rd", "city": "Evans", "country": "US", "keys": "us/ga/evans/4292washingtonrd/-864103396", "latitude": 33.5347, "longitude": -82.12697, "name": "Taco Bell", "postalCode": "30809", "province": "GA", "websites": "http://www.tacobell.com,https://locations.tacobell.com/ga/evans/4292-washington-rd.html?utm_source=yextandutm_campaign=yextpowerlistingsandutm_medium=referralandutm_term=023716andutm_content=website,https://locations.tacobell.com/ga/evans/4292-washington" }, "geometry": { "type": "Point", "coordinates": [ -82.12697, 33.5347 ] } },
{ "type": "Feature", "properties": { "address": "8543 Tara Blvd", "city": "Jonesboro", "country": "US", "keys": "us/ga/jonesboro/8543tarablvd/-791445730", "latitude": 33.52163, "longitude": -84.364066, "name": "Wendy's", "postalCode": "30236", "province": "GA", "websites": "http://www.wendys.com" }, "geometry": { "type": "Point", "coordinates": [ -84.364066, 33.52163 ] } },
{ "type": "Feature", "properties": { "address": "975 Crosstown Dr", "city": "Peachtree City", "country": "US", "keys": "us/ga/peachtreecity/975crosstowndr/-791445730", "latitude": 33.371662, "longitude": -84.56751, "name": "Wendy's", "postalCode": "30269", "province": "GA", "websites": "http://www.wendys.com" }, "geometry": { "type": "Point", "coordinates": [ -84.56751, 33.371662 ] } },
{ "type": "Feature", "properties": { "address": "3085 Ronald Reagan Blvd", "city": "Cumming", "country": "US", "keys": "us/ga/cumming/3085ronaldreaganblvd/-2061630068", "latitude": 34.1509, "longitude": -84.1718, "name": "Burger King", "postalCode": "30041", "province": "GA", "websites": "http://www.bk.com" }, "geometry": { "type": "Point", "coordinates": [ -84.1718, 34.1509 ] } },
{ "type": "Feature", "properties": { "address": "5625 Lawrenceville Hwy", "city": "Lilburn", "country": "US", "keys": "us/ga/lilburn/5625lawrencevillehwy/1241037051", "latitude": 33.88069, "longitude": -84.165712, "name": "Bojangles' Famous Chicken 'n Biscuits", "postalCode": "30047", "province": "GA", "websites": "http://www.bojangles.com,http://bojangles.com" }, "geometry": { "type": "Point", "coordinates": [ -84.165712, 33.88069 ] } },
{ "type": "Feature", "properties": { "address": "4965 Sugarloaf Pkwy", "city": "Lawrenceville", "country": "US", "keys": "us/ga/lawrenceville/4965sugarloafpkwy/-345832572", "latitude": 33.95743, "longitude": -84.05794144, "name": "Chick-fil-A", "postalCode": "30044", "province": "GA", "websites": "http://www.chick-fil-a.com/sugarloafand316" }, "geometry": { "type": "Point", "coordinates": [ -84.05794144, 33.95743 ] } },
{ "type": "Feature", "properties": { "address": "1810 Wynnton Rd", "city": "Columbus", "country": "US", "keys": "us/ga/columbus/1810wynntonrd/1780593795", "latitude": 32.46752, "longitude": -84.96716, "name": "SONIC Drive In", "postalCode": "31906", "province": "GA", "websites": "https://locations.sonicdrivein.com/ga/columbus/1810-wynnton-road.html,http://sonicdrivein.com" }, "geometry": { "type": "Point", "coordinates": [ -84.96716, 32.46752 ] } },
{ "type": "Feature", "properties": { "address": "4606 Skidaway Rd", "city": "Savannah", "country": "US", "keys": "us/ga/savannah/4606skidawayrd/-2061630068", "latitude": 32.0272, "longitude": -81.0708, "name": "Burger King", "postalCode": "31404", "province": "GA", "websites": "http://burgerking.com" }, "geometry": { "type": "Point", "coordinates": [ -81.0708, 32.0272 ] } },
{ "type": "Feature", "properties": { "address": "4348 Buena Vista Rd", "city": "Columbus", "country": "US", "keys": "us/ga/columbus/4348buenavistard/-864103396", "latitude": 32.46488, "longitude": -84.91912, "name": "Taco Bell", "postalCode": "31907", "province": "GA", "websites": "http://www.tacobell.com,https://locations.tacobell.com/ga/columbus/4348-buena-vista-rd.html?utm_source=yextandutm_campaign=yextpowerlistingsandutm_medium=referralandutm_term=029102andutm_content=website,https://locations.tacobell.com/ga/columbus/4348-bue" }, "geometry": { "type": "Point", "coordinates": [ -84.91912, 32.46488 ] } },
{ "type": "Feature", "properties": { "address": "1065 Access Rd", "city": "Covington", "country": "US", "keys": "us/ga/covington/1065accessrd/-1055723171", "latitude": 33.61054, "longitude": -83.887726, "name": "Domino's Pizza", "postalCode": "30014", "province": "GA", "websites": "http://www.dominos.com,https://www.dominos.com/en/pages/order/menu.jsp?utm_source=locallistings&utm_medium=loclist&utm_campaign=localmaps#/menu/category/all" }, "geometry": { "type": "Point", "coordinates": [ -83.887726, 33.61054 ] } },
{ "type": "Feature", "properties": { "address": "2276 Snellville Plz", "city": "Snellville", "country": "US", "keys": "us/ga/snellville/2276snellvilleplz/-1055723171", "latitude": 33.85748, "longitude": -84.01875, "name": "Domino's Pizza", "postalCode": "30078", "province": "GA", "websites": "http://www.dominos.com,https://www.dominos.com/en/?redirect=homepage&utm_source=yext&utm_medium=loclist&utm_campaign=localmaps" }, "geometry": { "type": "Point", "coordinates": [ -84.01875, 33.85748 ] } },
{ "type": "Feature", "properties": { "address": "2995 Highway 36 W", "city": "Jackson", "country": "US", "keys": "us/ga/jackson/2995highway36w/-791445730", "latitude": 34.158046, "longitude": -83.469104, "name": "Wendy's", "postalCode": "30233", "province": "GA", "websites": "http://wendys.com" }, "geometry": { "type": "Point", "coordinates": [ -83.469104, 34.158046 ] } },
{ "type": "Feature", "properties": { "address": "6225 Zebulon Rd", "city": "Macon", "country": "US", "keys": "us/ga/macon/6225zebulonrd/-442344130", "latitude": 32.88046, "longitude": -83.765197, "name": "Krystal", "postalCode": "31210", "province": "GA", "websites": "http://t.co/3VQiWtMxPf,http://www.krystal.com/locations/georgia/macon-zebulon-road/" }, "geometry": { "type": "Point", "coordinates": [ -83.765197, 32.88046 ] } },
{ "type": "Feature", "properties": { "address": "28 Us 19", "city": "Camilla", "country": "US", "keys": "us/ga/camilla/28us19/-1161002137", "latitude": 31.23034126, "longitude": -84.199646396000006, "name": "Mcdonalds", "postalCode": "31730", "province": "GA", "websites": "http://mcdonalds.com" }, "geometry": { "type": "Point", "coordinates": [ -84.199646396, 31.23034126 ] } },
{ "type": "Feature", "properties": { "address": "210 N Camellia Blvd", "city": "Fort Valley", "country": "US", "keys": "us/ga/fortvalley/210ncamelliablvd/106088", "latitude": 32.556922485999998, "longitude": -83.884331722, "name": "KFC", "postalCode": "31030", "province": "GA", "websites": "http://www.kfc.com,http://api.citygridmedia.com/content/places/v2/click?q=9YKflVKbY9NauPJdMy0B1gS1IhB4xv4EWw0zDoT-UWc_izWF3zs5PKGdfOHubWrvM0QwDCYwbOH2fdLi0dK5xArULcksCCbfR-WWAz9xD1AmGVAQZIom4U3n5R4DuRC8WJCtvJcNItEKoCSfzwapuGnmwGnHDpEGYXGjnN4u8zXqkiimSHFf" }, "geometry": { "type": "Point", "coordinates": [ -83.884331722, 32.556922486 ] } },
{ "type": "Feature", "properties": { "address": "1307 E Shotwell St", "city": "Bainbridge", "country": "US", "keys": "us/al/bainbridge/1307eshotwellst/-791445730", "latitude": 30.9039, "longitude": -84.5577, "name": "Wendy's", "postalCode": "39819", "province": "AL", "websites": "http://api.citygridmedia.com/content/places/v2/click?q=9YKflVKbY9NauPJdMy0B1gS1IhB4xv4EWw0zDoT-UWc_izWF3zs5PKGdfOHubWrvM0QwDCYwbOH2fdLi0dK5xArULcksCCbfR-WWAz9xD1AmGVAQZIom4U3n5R4DuRC8WJCtvJcNItEKoCSfzwapuGnmwGnHDpEGYXGjnN4u8zXqkiimSHFf4_dbqGRbVgNJUKtsnlh" }, "geometry": { "type": "Point", "coordinates": [ -84.5577, 30.9039 ] } },
{ "type": "Feature", "properties": { "address": "6072 Fairburn Rd", "city": "Douglasville", "country": "US", "keys": "us/ga/douglasville/6072fairburnrd/-1161002137", "latitude": 33.75101, "longitude": -84.73148, "name": "McDonald's", "postalCode": "30134", "province": "GA", "websites": "http://mcdonalds.com,http://www.mcdonalds.com/?cid=RF:YXT_FM:TP::Yext:Referral" }, "geometry": { "type": "Point", "coordinates": [ -84.73148, 33.75101 ] } },
{ "type": "Feature", "properties": { "address": "6409 Whittlesey Blvd", "city": "Columbus", "country": "US", "keys": "us/ga/columbus/6409whittleseyblvd/-1089370303", "latitude": 32.54841, "longitude": -84.93883, "name": "Jim Bob's Chicken Fingers", "postalCode": "31909", "province": "GA", "websites": "http://jimbobschicken.com" }, "geometry": { "type": "Point", "coordinates": [ -84.93883, 32.54841 ] } },
{ "type": "Feature", "properties": { "address": "825 Duluth Hwy", "city": "Lawrenceville", "country": "US", "keys": "us/ga/lawrenceville/825duluthhwy/1020328116", "latitude": 33.96765, "longitude": -84.01829, "name": "Pollo Tropical", "postalCode": "30043", "province": "GA", "websites": "http://pollotropical.com" }, "geometry": { "type": "Point", "coordinates": [ -84.01829, 33.96765 ] } },
{ "type": "Feature", "properties": { "address": "2154 Henderson Mill Rd NE", "city": "Atlanta", "country": "US", "keys": "us/ga/atlanta/2154hendersonmillrdne/-891525969", "latitude": 33.847594, "longitude": -84.255832, "name": "Subway", "postalCode": "30345", "province": "GA", "websites": "http://www.subway.com,http://subway.com/" }, "geometry": { "type": "Point", "coordinates": [ -84.255832, 33.847594 ] } },
{ "type": "Feature", "properties": { "address": "814 Radford Blvd", "city": "Albany", "country": "US", "keys": "us/ga/albany/814radfordblvd/-891525969", "latitude": 31.551047, "longitude": -84.054122, "name": "Subway", "postalCode": "31704", "province": "GA", "websites": "http://www.subway.com,http://subway.com" }, "geometry": { "type": "Point", "coordinates": [ -84.054122, 31.551047 ] } },
{ "type": "Feature", "properties": { "address": "1509 W Walnut Ave", "city": "Dalton", "country": "US", "keys": "us/ga/dalton/1509wwalnutave/-864103396", "latitude": 34.760359, "longitude": -84.995779, "name": "Taco Bell", "postalCode": "30720", "province": "GA", "websites": "https://locations.tacobell.com/ga/dalton/1509-w-walnut-ave.html,https://locations.tacobell.com/ga/dalton/1509-w-walnut-ave.html?utm_source=yextandutm_campaign=yextpowerlistingsandutm_medium=referralandutm_term=029008andutm_content=website,https://locatio" }, "geometry": { "type": "Point", "coordinates": [ -84.995779, 34.760359 ] } },
{ "type": "Feature", "properties": { "address": "13800 Highway 9 N", "city": "Alpharetta", "country": "US", "keys": "us/ga/alpharetta/13800highway9n/-891525969", "latitude": 34.116528158000001, "longitude": -84.270714635999994, "name": "Subway", "postalCode": "30004", "province": "GA", "websites": null }, "geometry": { "type": "Point", "coordinates": [ -84.270714636, 34.116528158 ] } },
{ "type": "Feature", "properties": { "address": "6259 Jonesboro Rd", "city": "Morrow", "country": "US", "keys": "us/ga/morrow/6259jonesborord/-864103396", "latitude": 33.584363, "longitude": -84.339585, "name": "Taco Bell", "postalCode": "30260", "province": "GA", "websites": "http://www.tacobell.com,https://locations.tacobell.com/ga/morrow/6259-jonesboro-rd.html?utm_source=yext&utm_campaign=yextpowerlistings&utm_medium=referral&utm_term=030605&utm_content=website" }, "geometry": { "type": "Point", "coordinates": [ -84.339585, 33.584363 ] } },
{ "type": "Feature", "properties": { "address": "8144 Wells St", "city": "Senoia", "country": "US", "keys": "us/ga/senoia/8144wellsst/-1513468126", "latitude": 33.293301354999997, "longitude": -84.543474911999994, "name": "Flash Foods / McDonald's", "postalCode": "30276", "province": "GA", "websites": "http://mcdonalds.com" }, "geometry": { "type": "Point", "coordinates": [ -84.543474912, 33.293301355 ] } },
{ "type": "Feature", "properties": { "address": "2790 Panola Rd", "city": "Lithonia", "country": "US", "keys": "us/ga/lithonia/2790panolard/1910868912", "latitude": 33.7058, "longitude": -84.1689, "name": "Wings And Philly", "postalCode": "30058", "province": "GA", "websites": null }, "geometry": { "type": "Point", "coordinates": [ -84.1689, 33.7058 ] } },
{ "type": "Feature", "properties": { "address": "11780 Haynes Bridge Rd", "city": "Alpharetta", "country": "US", "keys": "us/ga/alpharetta/11780haynesbridgerd/-2061630068", "latitude": 34.069968, "longitude": -84.293688, "name": "Burger King", "postalCode": "30004", "province": "GA", "websites": "http://www.bk.com" }, "geometry": { "type": "Point", "coordinates": [ -84.293688, 34.069968 ] } },
{ "type": "Feature", "properties": { "address": "2950 Holcomb Brg", "city": "Roswell", "country": "US", "keys": "us/ga/roswell/2950holcombbrg/-1161002137", "latitude": 33.989632366000002, "longitude": -84.27431792, "name": "Mcdonald's", "postalCode": "30075", "province": "GA", "websites": "http://mcdonalds.com" }, "geometry": { "type": "Point", "coordinates": [ -84.27431792, 33.989632366 ] } },
{ "type": "Feature", "properties": { "address": "1665 Ball Ground Hwy", "city": "Canton", "country": "US", "keys": "us/ga/canton/1665ballgroundhwy/1241037051", "latitude": 34.25967, "longitude": -84.463627, "name": "Bojangles' Famous Chicken 'n Biscuits", "postalCode": "30114", "province": "GA", "websites": "http://locations.bojangles.com/ga/canton/1665-ball-ground-hwy.html,http://bojangles.com" }, "geometry": { "type": "Point", "coordinates": [ -84.463627, 34.25967 ] } },
{ "type": "Feature", "properties": { "address": "225 N Main St", "city": "Cedartown", "country": "US", "keys": "us/ga/cedartown/225nmainst/-864103396", "latitude": 34.01704, "longitude": -85.25437, "name": "Taco Bell", "postalCode": "30125", "province": "GA", "websites": "https://locations.tacobell.com/ga/cedartown/225-n-main-st.html?utm_source=yextandutm_campaign=yextpowerlistingsandutm_medium=referralandutm_term=027307andutm_content=website,https://locations.tacobell.com/ga/cedartown/225-n-main-st.html?utm_source=yext&u" }, "geometry": { "type": "Point", "coordinates": [ -85.25437, 34.01704 ] } },
{ "type": "Feature", "properties": { "address": "224 Towne Lake Pkwy", "city": "Woodstock", "country": "US", "keys": "us/ga/woodstock/224townelakepkwy/-891525969", "latitude": 34.103152183, "longitude": -84.52902317, "name": "Subway", "postalCode": "30188", "province": "GA", "websites": "http://subway.com" }, "geometry": { "type": "Point", "coordinates": [ -84.52902317, 34.103152183 ] } },
{ "type": "Feature", "properties": { "address": "6700 Peake Rd", "city": "Macon", "country": "US", "keys": "us/ga/macon/6700peakerd/1780593795", "latitude": 32.87804, "longitude": -83.76437, "name": "Sonic Drive-In", "postalCode": "31210", "province": "GA", "websites": "https://locations.sonicdrivein.com/ga/macon/6700-peake-road.html,http://sonicdrivein.com" }, "geometry": { "type": "Point", "coordinates": [ -83.76437, 32.87804 ] } },
{ "type": "Feature", "properties": { "address": "1316 N Park St", "city": "Carrollton", "country": "US", "keys": "us/ga/carrollton/1316nparkst/-345832572", "latitude": 33.604797, "longitude": -85.081635, "name": "Chick-fil-a", "postalCode": "30117", "province": "GA", "websites": "http://chick-fil-a.com" }, "geometry": { "type": "Point", "coordinates": [ -85.081635, 33.604797 ] } },
{ "type": "Feature", "properties": { "address": "5600 Bells Ferry Rd", "city": "Acworth", "country": "US", "keys": "us/ga/acworth/5600bellsferryrd/-1161002137", "latitude": 34.08656, "longitude": -84.57571, "name": "McDonald's", "postalCode": "30102", "province": "GA", "websites": "http://mcdonalds.com,http://www.mcdonalds.com/?cid=RF:YXT_FM:TP::Yext:Referral" }, "geometry": { "type": "Point", "coordinates": [ -84.57571, 34.08656 ] } },
{ "type": "Feature", "properties": { "address": "1700 Marietta Hwy", "city": "Canton", "country": "US", "keys": "us/ga/canton/1700mariettahwy/-2061630068", "latitude": 34.223177, "longitude": -84.502137, "name": "Burger King", "postalCode": "30114", "province": "GA", "websites": "http://www.bk.com" }, "geometry": { "type": "Point", "coordinates": [ -84.502137, 34.223177 ] } },
{ "type": "Feature", "properties": { "address": "2540 Delk Rd SE", "city": "Marietta", "country": "US", "keys": "us/ga/marietta/2540delkrdse/-864103396", "latitude": 33.922663, "longitude": -84.480224, "name": "Taco Bell", "postalCode": "30067", "province": "GA", "websites": "http://www.tacobell.com,http://tacobell.com" }, "geometry": { "type": "Point", "coordinates": [ -84.480224, 33.922663 ] } },
{ "type": "Feature", "properties": { "address": "130 Felton Dr", "city": "Rockmart", "country": "US", "keys": "us/ga/rockmart/130feltondr/106088", "latitude": 34.011, "longitude": -85.0415, "name": "KFC", "postalCode": "30153", "province": "GA", "websites": "http://api.citygridmedia.com/content/places/v2/click?q=9YKflVKbY9NauPJdMy0B1gS1IhB4xv4EWw0zDoT-UWc_izWF3zs5PKGdfOHubWrvM0QwDCYwbOH2fdLi0dK5xArULcksCCbfR-WWAz9xD1AmGVAQZIom4U3n5R4DuRC8WJCtvJcNItEKoCSfzwapuGnmwGnHDpEGYXGjnN4u8zXqkiimSHFf4_dbqGRbVgNJoONfaAK" }, "geometry": { "type": "Point", "coordinates": [ -85.0415, 34.011 ] } },
{ "type": "Feature", "properties": { "address": "5471 Alabama Hwy", "city": "Ringgold", "country": "US", "keys": "us/ga/ringgold/5471alabamahwy/-1161002137", "latitude": 34.91128, "longitude": -85.125836, "name": "McDonald's", "postalCode": "30736", "province": "GA", "websites": "http://mcdonalds.com,http://www.mcdonalds.com/?cid=RF:YXT_FM:TP::Yext:Referral" }, "geometry": { "type": "Point", "coordinates": [ -85.125836, 34.91128 ] } },
{ "type": "Feature", "properties": { "address": "809 2nd St W", "city": "Tifton", "country": "US", "keys": "us/ga/tifton/8092ndstw/-864103396", "latitude": 31.45834, "longitude": -83.52583, "name": "Taco Bell", "postalCode": "31794", "province": "GA", "websites": "http://www.tacobell.com,https://locations.tacobell.com/ga/tifton/809-w-2nd-street.html?utm_source=yextandutm_campaign=yextpowerlistingsandutm_medium=referralandutm_term=029075andutm_content=website,http://api.citygridmedia.com/content/places/v2/click?q=9" }, "geometry": { "type": "Point", "coordinates": [ -83.52583, 31.45834 ] } },
{ "type": "Feature", "properties": { "address": "2842 Panola Rd", "city": "Lithonia", "country": "US", "keys": "us/ga/lithonia/2842panolard/1082608893", "latitude": 33.704469, "longitude": -84.168989, "name": "Waffle House", "postalCode": "30058", "province": "GA", "websites": "https://locations.wafflehouse.com/ga-lithonia-100" }, "geometry": { "type": "Point", "coordinates": [ -84.168989, 33.704469 ] } },
{ "type": "Feature", "properties": { "address": "1704 Turner McCall Blvd", "city": "Rome", "country": "US", "keys": "us/ga/rome/1704turnermccallblvd/-442344130", "latitude": 34.2442, "longitude": -85.1617, "name": "Krystal", "postalCode": "30161", "province": "GA", "websites": "http://t.co/3VQiWtMxPf,http://www.krystal.com/locations/georgia/rome-turner-mccall-boulevard/,http://www.krystal.com" }, "geometry": { "type": "Point", "coordinates": [ -85.1617, 34.2442 ] } },
{ "type": "Feature", "properties": { "address": "421 S Columbia Ave", "city": "Rincon", "country": "US", "keys": "us/ga/rincon/421scolumbiaave/-2061630068", "latitude": 32.27778, "longitude": -81.23042, "name": "Burger King", "postalCode": "31326", "province": "GA", "websites": "http://www.bk.com" }, "geometry": { "type": "Point", "coordinates": [ -81.23042, 32.27778 ] } },
{ "type": "Feature", "properties": { "address": "1757 E West Connector", "city": "Austell", "country": "US", "keys": "us/ga/austell/1757ewestconnector/-448666054", "latitude": 33.853083888999997, "longitude": -84.602054315999993, "name": "Five Guys", "postalCode": "30106", "province": "GA", "websites": "http://fiveguys.com" }, "geometry": { "type": "Point", "coordinates": [ -84.602054316, 33.853083889 ] } },
{ "type": "Feature", "properties": { "address": "7207 Lakes Blvd", "city": "Lake Park", "country": "US", "keys": "us/ga/lakepark/7207lakesblvd/-1161002137", "latitude": 30.67981, "longitude": -83.22533, "name": "McDonalds", "postalCode": "31636", "province": "GA", "websites": "http://mcdonalds.com,http://www.mcdonalds.com/?cid=RF:YXT_FM:TP::Yext:Referral,http://api.citygridmedia.com/content/places/v2/click?q=9YKflVKbY9NauPJdMy0B1gS1IhB4xv4EWw0zDoT-UWc_izWF3zs5PKGdfOHubWrvM0QwDCYwbOH2fdLi0dK5xArULcksCCbfR-WWAz9xD1AmGVAQZIom4U3n" }, "geometry": { "type": "Point", "coordinates": [ -83.22533, 30.67981 ] } },
{ "type": "Feature", "properties": { "address": "455 Peachtree Industrial Blvd", "city": "Suwanee", "country": "US", "keys": "us/ga/suwanee/455peachtreeindustrialblvd/1516016543", "latitude": 34.064102384000002, "longitude": -84.074276658000002, "name": "Long John Silvers", "postalCode": "30024", "province": "GA", "websites": "http://ljsilvers.com" }, "geometry": { "type": "Point", "coordinates": [ -84.074276658, 34.064102384 ] } },
{ "type": "Feature", "properties": { "address": "4340 Hugh Howell Rd", "city": "Tucker", "country": "US", "keys": "us/ga/tucker/4340hughhowellrd/-345832572", "latitude": 33.852399, "longitude": -84.209483, "name": "Chick-fil-A", "postalCode": "30084", "province": "GA", "websites": "http://www.chick-fil-a.com/tuckerstation,http://chick-fil-a.com/tuckerstation" }, "geometry": { "type": "Point", "coordinates": [ -84.209483, 33.852399 ] } },
{ "type": "Feature", "properties": { "address": "3711 Mundy Mill Rd", "city": "Oakwood", "country": "US", "keys": "us/ga/oakwood/3711mundymillrd/106088", "latitude": 34.2295, "longitude": -83.8695, "name": "KFC", "postalCode": "30566", "province": "GA", "websites": "http://api.citygridmedia.com/content/places/v2/click?q=9YKflVKbY9NauPJdMy0B1gS1IhB4xv4EWw0zDoT-UWc_izWF3zs5PKGdfOHubWrvM0QwDCYwbOH2fdLi0dK5xArULcksCCbfR-WWAz9xD1AmGVAQZIom4U3n5R4DuRC8WJCtvJcNItEKoCSfzwapuGnmwGnHDpEGYXGjnN4u8zXqkiimSHFf4_dbqGRbVgNJagszsvg" }, "geometry": { "type": "Point", "coordinates": [ -83.8695, 34.2295 ] } },
{ "type": "Feature", "properties": { "address": "6910 Highway 85", "city": "Riverdale", "country": "US", "keys": "us/ga/riverdale/6910highway85/-2061630068", "latitude": 33.566151483, "longitude": -84.412637258999993, "name": "Burger King", "postalCode": "30274", "province": "GA", "websites": "http://www.bk.com" }, "geometry": { "type": "Point", "coordinates": [ -84.412637259, 33.566151483 ] } },
{ "type": "Feature", "properties": { "address": "168 W May St", "city": "Winder", "country": "US", "keys": "us/ga/winder/168wmayst/-1696991095", "latitude": 33.99434, "longitude": -83.73404, "name": "Church's Chicken", "postalCode": "30680-2081", "province": "GA", "websites": "http://www.churchs.com" }, "geometry": { "type": "Point", "coordinates": [ -83.73404, 33.99434 ] } },
{ "type": "Feature", "properties": { "address": "5350 Mcginnis Ferry Rd", "city": "Alpharetta", "country": "US", "keys": "us/ga/alpharetta/5350mcginnisferryrd/-1161002137", "latitude": 34.090274, "longitude": -84.203655, "name": "McDonald's", "postalCode": "30005", "province": "GA", "websites": "http://mcdonalds.com" }, "geometry": { "type": "Point", "coordinates": [ -84.203655, 34.090274 ] } },
{ "type": "Feature", "properties": { "address": "4870 Peachtree Industrial Blvd", "city": "Norcross", "country": "US", "keys": "us/ga/norcross/4870peachtreeindustrialblvd/-1947870258", "latitude": 33.96805, "longitude": -84.19367, "name": "Jimmy John's", "postalCode": "30071", "province": "GA", "websites": "http://www.jimmyjohns.com" }, "geometry": { "type": "Point", "coordinates": [ -84.19367, 33.96805 ] } },
{ "type": "Feature", "properties": { "address": "449 Walton Way", "city": "Augusta", "country": "US", "keys": "us/ga/augusta/449waltonway/-791445730", "latitude": 33.465707, "longitude": -81.961728, "name": "Wendy's", "postalCode": "30901", "province": "GA", "websites": "http://www.wendys.com,http://api.citygridmedia.com/content/places/v2/click?q=9YKflVKbY9NauPJdMy0B1gS1IhB4xv4EWw0zDoT-UWc_izWF3zs5PKGdfOHubWrvM0QwDCYwbOH2fdLi0dK5xArULcksCCbfR-WWAz9xD1AmGVAQZIom4U3n5R4DuRC8WJCtvJcNItEKoCSfzwapuGnmwGnHDpEGYXGjnN4u8zXqkiimS" }, "geometry": { "type": "Point", "coordinates": [ -81.961728, 33.465707 ] } },
{ "type": "Feature", "properties": { "address": "1100 Northside Dr NW", "city": "Atlanta", "country": "US", "keys": "us/ga/atlanta/1100northsidedrnw/-345832572", "latitude": 33.782283, "longitude": -84.408363, "name": "Chick-Fil-A", "postalCode": "30318", "province": "GA", "websites": "http://www.chick-fil-a.com/westmidtown,http://www.chick-fil-a.com" }, "geometry": { "type": "Point", "coordinates": [ -84.408363, 33.782283 ] } },
{ "type": "Feature", "properties": { "address": "3447 Main St", "city": "Atlanta", "country": "US", "keys": "us/ga/atlanta/3447mainst/-1560457549", "latitude": 33.66135, "longitude": -84.44696, "name": "Captain D's", "postalCode": "30337", "province": "GA", "websites": "https://locations.captainds.com/ga/college-park/3447-main-st.html,http://www.captainds.com,http://www.captainds.com/" }, "geometry": { "type": "Point", "coordinates": [ -84.44696, 33.66135 ] } },
{ "type": "Feature", "properties": { "address": "565 Bankhead Hwy", "city": "Carrollton", "country": "US", "keys": "us/ga/carrollton/565bankheadhwy/-864103396", "latitude": 33.586951, "longitude": -85.057866, "name": "Taco Bell", "postalCode": "30117", "province": "GA", "websites": "https://locations.tacobell.com/ga/carrollton/565-bankhead-hwy.html?utm_source=yextandutm_campaign=yextpowerlistingsandutm_medium=referralandutm_term=003859andutm_content=website,http://www.tacobell.com,https://locations.tacobell.com/ga/carrollton/565-ban" }, "geometry": { "type": "Point", "coordinates": [ -85.057866, 33.586951 ] } },
{ "type": "Feature", "properties": { "address": "Hwy 138", "city": "Stockbridge", "country": "US", "keys": "us/ga/stockbridge/hwy138/-1161002137", "latitude": 33.54027512, "longitude": -84.263037198000006, "name": "Mcdonalds", "postalCode": "30281", "province": "GA", "websites": null }, "geometry": { "type": "Point", "coordinates": [ -84.263037198, 33.54027512 ] } },
{ "type": "Feature", "properties": { "address": "4638 Atlanta Hwy", "city": "Loganville", "country": "US", "keys": "us/ga/loganville/4638atlantahwy/-1161002137", "latitude": 33.83468, "longitude": -83.8907, "name": "McDonald's", "postalCode": "30052", "province": "GA", "websites": "http://mcdonalds.com,http://www.mcdonalds.com/?cid=RF:YXT_FM:TP::Yext:Referral" }, "geometry": { "type": "Point", "coordinates": [ -83.8907, 33.83468 ] } },
{ "type": "Feature", "properties": { "address": "943 Maddox Dr", "city": "Ellijay", "country": "US", "keys": "us/ga/ellijay/943maddoxdr/-1161002137", "latitude": 34.67815, "longitude": -84.47863, "name": "Mcdonalds", "postalCode": "30540", "province": "GA", "websites": "http://mcdonalds.com,http://www.mcdonalds.com/?cid=RF:YXT_FM:TP::Yext:Referral,http://api.citygridmedia.com/content/places/v2/click?q=9YKflVKbY9NauPJdMy0B1gS1IhB4xv4EGQ6wFBP1R9j_yPfgIG2qmnnU3b4EFXLWYqzqH6pileJnsDBgYjhj6412OE3eqoLyrSIPEJpXfr10mUiQbRKfZCKZ" }, "geometry": { "type": "Point", "coordinates": [ -84.47863, 34.67815 ] } },
{ "type": "Feature", "properties": { "address": "800 Glynn St S", "city": "Fayetteville", "country": "US", "keys": "us/ga/fayetteville/800glynnsts/-791445730", "latitude": 33.4336, "longitude": -84.4563, "name": "Wendy's", "postalCode": "30214", "province": "GA", "websites": "http://www.wendys.com" }, "geometry": { "type": "Point", "coordinates": [ -84.4563, 33.4336 ] } },
{ "type": "Feature", "properties": { "address": "1101 Dawson Rd", "city": "Albany", "country": "US", "keys": "us/ga/albany/1101dawsonrd/-791445730", "latitude": 31.58143, "longitude": -84.17621, "name": "Wendy's", "postalCode": "31707", "province": "GA", "websites": "http://www.wendys.com,http://wendys.com" }, "geometry": { "type": "Point", "coordinates": [ -84.17621, 31.58143 ] } },
{ "type": "Feature", "properties": { "address": "676 Duluth Hwy", "city": "Lawrenceville", "country": "US", "keys": "us/ga/lawrenceville/676duluthhwy/-791445730", "latitude": 33.9661, "longitude": -84.010765, "name": "Wendy's", "postalCode": "30046", "province": "GA", "websites": "http://www.wendys.com,http://wendys.com" }, "geometry": { "type": "Point", "coordinates": [ -84.010765, 33.9661 ] } },
{ "type": "Feature", "properties": { "address": "4464 Shiloh Rd", "city": "Valdosta", "country": "US", "keys": "us/ga/valdosta/4464shilohrd/-2061630068", "latitude": 30.895433169, "longitude": -83.358623160999997, "name": "Burger King", "postalCode": "31602", "province": "GA", "websites": null }, "geometry": { "type": "Point", "coordinates": [ -83.358623161, 30.895433169 ] } },
{ "type": "Feature", "properties": { "address": "468 S Columbia Ave", "city": "Rincon", "country": "US", "keys": "us/ga/rincon/468scolumbiaave/-442344130", "latitude": 32.27259, "longitude": -81.22694, "name": "Krystal", "postalCode": "31326", "province": "GA", "websites": "http://www.krystal.com/locations/georgia/rincon-south-columbia-avenue,http://t.co/3VQiWtMxPf" }, "geometry": { "type": "Point", "coordinates": [ -81.22694, 32.27259 ] } },
{ "type": "Feature", "properties": { "address": "4786 Jimmy Lee Smith Pkwy", "city": "Hiram", "country": "US", "keys": "us/ga/hiram/4786jimmyleesmithpkwy/-791445730", "latitude": 33.889286, "longitude": -84.74985, "name": "Wendy's", "postalCode": "30141", "province": "GA", "websites": "http://www.wendys.com,http://wendys.com" }, "geometry": { "type": "Point", "coordinates": [ -84.74985, 33.889286 ] } },
{ "type": "Feature", "properties": { "address": "5450 Peachtree Industrial Blvd", "city": "Atlanta", "country": "US", "keys": "us/ga/atlanta/5450peachtreeindustrialblvd/-345832572", "latitude": 33.898514, "longitude": -84.302747, "name": "Chick-fil-A", "postalCode": "30341", "province": "GA", "websites": "https://www.chick-fil-a.com/Locations/GA/Chamblee-Plaza,http://www.chick-fil-a.com" }, "geometry": { "type": "Point", "coordinates": [ -84.302747, 33.898514 ] } },
{ "type": "Feature", "properties": { "address": "101b N Park PL", "city": "Stockbridge", "country": "US", "keys": "us/ga/stockbridge/101bnparkpl/-1721138121", "latitude": 33.5083, "longitude": -84.22905, "name": "Dairy Queen", "postalCode": "30281-6380", "province": "GA", "websites": "http://www.dairyqueen.com" }, "geometry": { "type": "Point", "coordinates": [ -84.22905, 33.5083 ] } },
{ "type": "Feature", "properties": { "address": "1816 Tift Ave N", "city": "Tifton", "country": "US", "keys": "us/ga/tifton/1816tiftaven/-1161002137", "latitude": 31.470858, "longitude": -83.503074, "name": "McDonald's", "postalCode": "31794", "province": "GA", "websites": "http://www.mcdonalds.com,http://www.mcdonalds.com/?cid=RF:YXT_FM:TP::Yext:Referral,http://api.citygridmedia.com/content/places/v2/click?q=9YKflVKbY9NauPJdMy0B1gS1IhB4xv4EWw0zDoT-UWc_izWF3zs5PKGdfOHubWrvM0QwDCYwbOH2fdLi0dK5xArULcksCCbfR-WWAz9xD1AmGVAQZIom" }, "geometry": { "type": "Point", "coordinates": [ -83.503074, 31.470858 ] } },
{ "type": "Feature", "properties": { "address": "4836 Highway 129N", "city": "Jefferson", "country": "US", "keys": "us/ga/jefferson/4836highway129n/1241037051", "latitude": 34.152555, "longitude": -83.641789, "name": "Bojangles' Famous Chicken 'n Biscuits", "postalCode": "30549", "province": "GA", "websites": "http://www.bojangles.com,http://locations.bojangles.com/ga/jefferson/4836-highway-129n.html" }, "geometry": { "type": "Point", "coordinates": [ -83.641789, 34.152555 ] } },
{ "type": "Feature", "properties": { "address": "999 Nathan Dean Pkwy", "city": "Rockmart", "country": "US", "keys": "us/ga/rockmart/999nathandeanpkwy/1241037051", "latitude": 34.011526, "longitude": -85.045308, "name": "Bojangles' Famous Chicken 'n Biscuits", "postalCode": "30153", "province": "GA", "websites": "http://www.bojangles.com,http://locations.bojangles.com/ga/rockmart/999-nathan-dean-pkwy.html" }, "geometry": { "type": "Point", "coordinates": [ -85.045308, 34.011526 ] } },
{ "type": "Feature", "properties": { "address": "1408 Veterans Pkwy", "city": "Columbus", "country": "US", "keys": "us/ga/columbus/1408veteranspkwy/-864103396", "latitude": 32.47287, "longitude": -84.987, "name": "Taco Bell", "postalCode": "31901", "province": "GA", "websites": "http://www.tacobell.com,https://locations.tacobell.com/ga/columbus/1408-veterans-parkway.html?utm_source=yextandutm_campaign=yextpowerlistingsandutm_medium=referralandutm_term=029096andutm_content=website" }, "geometry": { "type": "Point", "coordinates": [ -84.987, 32.47287 ] } },
{ "type": "Feature", "properties": { "address": "2901 N Ashley St", "city": "Valdosta", "country": "US", "keys": "us/ga/valdosta/2901nashleyst/696490760", "latitude": 30.869754, "longitude": -83.288177, "name": "Hardee's", "postalCode": "31602", "province": "GA", "websites": "http://www.hardees.com,http://api.citygridmedia.com/content/places/v2/click?q=9YKflVKbY9NauPJdMy0B1gS1IhB4xv4EWw0zDoT-UWc_izWF3zs5PKGdfOHubWrvM0QwDCYwbOH2fdLi0dK5xArULcksCCbfR-WWAz9xD1AmGVAQZIom4U3n5R4DuRC8WJCtvJcNItEKoCSfzwapuGnmwGnHDpEGYXGjnN4u8zXqkiim" }, "geometry": { "type": "Point", "coordinates": [ -83.288177, 30.869754 ] } },
{ "type": "Feature", "properties": { "address": "71 Fairview Rd.", "city": "Stockbridge", "country": "US", "keys": "us/ga/stockbridge/71fairviewrd./-1161002137", "latitude": 33.61899, "longitude": -84.23474, "name": "McDonald's", "postalCode": "30281", "province": "GA", "websites": "http://mcdonalds.com,http://www.mcdonalds.com/?cid=RF:YXT_FM:TP::Yext:Referral" }, "geometry": { "type": "Point", "coordinates": [ -84.23474, 33.61899 ] } },
{ "type": "Feature", "properties": { "address": "1125 Peachtree Industrial Blvd", "city": "Suwanee", "country": "US", "keys": "us/ga/suwanee/1125peachtreeindustrialblvd/-1161002137", "latitude": 34.04854379, "longitude": -84.093893773000005, "name": "McDonald's", "postalCode": "30024", "province": "GA", "websites": "http://mcdonalds.com" }, "geometry": { "type": "Point", "coordinates": [ -84.093893773, 34.04854379 ] } },
{ "type": "Feature", "properties": { "address": "33 Highway 441 N", "city": "Clayton", "country": "US", "keys": "us/ga/clayton/33highway441n/-1721138121", "latitude": 34.87844, "longitude": -83.3973, "name": "Dairy Queen", "postalCode": "30525", "province": "GA", "websites": "http://www.dairyqueen.com" }, "geometry": { "type": "Point", "coordinates": [ -83.3973, 34.87844 ] } },
{ "type": "Feature", "properties": { "address": "1727 S Georgia Pkwy E", "city": "Waycross", "country": "US", "keys": "us/ga/waycross/1727sgeorgiapkwye/-891525969", "latitude": 31.20869, "longitude": -82.384177, "name": "Subway", "postalCode": "31501", "province": "GA", "websites": null }, "geometry": { "type": "Point", "coordinates": [ -82.384177, 31.20869 ] } },
{ "type": "Feature", "properties": { "address": "1304 W Screven St", "city": "Quitman", "country": "US", "keys": "us/ga/quitman/1304wscrevenst/-2061630068", "latitude": 30.78502, "longitude": -83.57172, "name": "Burger King", "postalCode": "31643", "province": "GA", "websites": "https://locations.bk.com/ga/quitman/1304-west-screven-st.html,https://www.bk.com,http://bk.com" }, "geometry": { "type": "Point", "coordinates": [ -83.57172, 30.78502 ] } },
{ "type": "Feature", "properties": { "address": "5385 Fairington Rd", "city": "Lithonia", "country": "US", "keys": "us/ga/lithonia/5385fairingtonrd/-864103396", "latitude": 33.700899, "longitude": -84.169873, "name": "Taco Bell", "postalCode": "30038", "province": "GA", "websites": "http://www.tacobell.com,https://locations.tacobell.com/ga/lithonia/5385-fairington-rd-.html?utm_source=yextandutm_campaign=yextpowerlistingsandutm_medium=referralandutm_term=033417andutm_content=website" }, "geometry": { "type": "Point", "coordinates": [ -84.169873, 33.700899 ] } },
{ "type": "Feature", "properties": { "address": "3335 Sixes Rd", "city": "Canton", "country": "US", "keys": "us/ga/canton/3335sixesrd/-1161002137", "latitude": 34.17336, "longitude": -84.54909, "name": "McDonald's", "postalCode": "30114", "province": "GA", "websites": "http://mcdonalds.com,http://www.mcdonalds.com/?cid=RF:YXT_FM:TP::Yext:Referral" }, "geometry": { "type": "Point", "coordinates": [ -84.54909, 34.17336 ] } },
{ "type": "Feature", "properties": { "address": "231 Highway 515", "city": "Blairsville", "country": "US", "keys": "us/ga/blairsville/231highway515/-26676258", "latitude": 34.88028, "longitude": -83.95501, "name": "Blimpie", "postalCode": "30512", "province": "GA", "websites": "http://blimpie.com" }, "geometry": { "type": "Point", "coordinates": [ -83.95501, 34.88028 ] } },
{ "type": "Feature", "properties": { "address": "8300 Phipps Rd", "city": "Palmetto", "country": "US", "keys": "us/ga/palmetto/8300phippsrd/-1161002137", "latitude": 33.528103109, "longitude": -84.659654074000002, "name": "McDonald's", "postalCode": "30268", "province": "GA", "websites": "http://mcdonalds.com" }, "geometry": { "type": "Point", "coordinates": [ -84.659654074, 33.528103109 ] } },
{ "type": "Feature", "properties": { "address": "575 Bankhead Hwy", "city": "Carrollton", "country": "US", "keys": "us/ga/carrollton/575bankheadhwy/-1009375531", "latitude": 33.5865888, "longitude": -85.057560683000005, "name": "Kentucky Fried Chicken", "postalCode": "30117", "province": "GA", "websites": null }, "geometry": { "type": "Point", "coordinates": [ -85.057560683, 33.5865888 ] } },
{ "type": "Feature", "properties": { "address": "1177 Bells Ferry Rd", "city": "Marietta", "country": "US", "keys": "us/ga/marietta/1177bellsferryrd/-145953479", "latitude": 33.980301435999998, "longitude": -84.559237681, "name": "Subway - Bell's Ferry", "postalCode": "30066", "province": "GA", "websites": "http://www.subway.com" }, "geometry": { "type": "Point", "coordinates": [ -84.559237681, 33.980301436 ] } },
{ "type": "Feature", "properties": { "address": "164 Barrett Pkwy N E", "city": "Marietta", "country": "US", "keys": "us/ga/marietta/164barrettpkwyne/-2061630068", "latitude": 34.014508624999998, "longitude": -84.554985781, "name": "Burger King", "postalCode": "30066", "province": "GA", "websites": "http://bk.com" }, "geometry": { "type": "Point", "coordinates": [ -84.554985781, 34.014508625 ] } },
{ "type": "Feature", "properties": { "address": "101 Princeton Blvd", "city": "Adairsville", "country": "US", "keys": "us/ga/adairsville/101princetonblvd/696490760", "latitude": 34.37653, "longitude": -84.91442, "name": "Hardee's", "postalCode": "30103", "province": "GA", "websites": "http://www.hardees.com" }, "geometry": { "type": "Point", "coordinates": [ -84.91442, 34.37653 ] } },
{ "type": "Feature", "properties": { "address": "812 Dacula Rd", "city": "Dacula", "country": "US", "keys": "us/ga/dacula/812daculard/1780593795", "latitude": 34.00651, "longitude": -83.91464, "name": "SONIC Drive In", "postalCode": "30019", "province": "GA", "websites": "https://locations.sonicdrivein.com/ga/dacula/812-dacula-road.html,http://sonicdrivein.com" }, "geometry": { "type": "Point", "coordinates": [ -83.91464, 34.00651 ] } },
{ "type": "Feature", "properties": { "address": "4285 Bells Ferry Rd", "city": "Kennesaw", "country": "US", "keys": "us/ga/kennesaw/4285bellsferryrd/-2061630068", "latitude": 34.055448298999998, "longitude": -84.557136412000006, "name": "Burger King", "postalCode": "30144", "province": "GA", "websites": "http://www.bk.com" }, "geometry": { "type": "Point", "coordinates": [ -84.557136412, 34.055448299 ] } },
{ "type": "Feature", "properties": { "address": "216 W Taylor St", "city": "Griffin", "country": "US", "keys": "us/ga/griffin/216wtaylorst/-2061630068", "latitude": 33.24684, "longitude": -84.26603, "name": "Burger King", "postalCode": "30223", "province": "GA", "websites": "http://www.bk.com" }, "geometry": { "type": "Point", "coordinates": [ -84.26603, 33.24684 ] } },
{ "type": "Feature", "properties": { "address": "1425 Georgia Ave", "city": "Macon", "country": "US", "keys": "us/ga/macon/1425georgiaave/-1696991095", "latitude": 32.8407, "longitude": -83.6428, "name": "Church's Chicken", "postalCode": "31201", "province": "GA", "websites": "http://churchs.com" }, "geometry": { "type": "Point", "coordinates": [ -83.6428, 32.8407 ] } },
{ "type": "Feature", "properties": { "address": "1675 Highway 138 SE", "city": "Conyers", "country": "US", "keys": "us/ga/conyers/1675highway138se/106088", "latitude": 33.646435, "longitude": -84.013689, "name": "KFC", "postalCode": "30013", "province": "GA", "websites": "http://www.kfc.com" }, "geometry": { "type": "Point", "coordinates": [ -84.013689, 33.646435 ] } },
{ "type": "Feature", "properties": { "address": "3649 Highway 138 SE", "city": "Stockbridge", "country": "US", "keys": "us/ga/stockbridge/3649highway138se/-345832572", "latitude": 33.5532, "longitude": -84.2719, "name": "Chick-fil-A", "postalCode": "30281", "province": "GA", "websites": "http://www.chick-fil-a.com/stockbridgedwarfhouse,http://www.chick-fil-a.com" }, "geometry": { "type": "Point", "coordinates": [ -84.2719, 33.5532 ] } },
{ "type": "Feature", "properties": { "address": "1580 Holcomb Bridge Rd", "city": "Roswell", "country": "US", "keys": "us/ga/roswell/1580holcombbridgerd/-891525969", "latitude": 34.01691199, "longitude": -84.310335619, "name": "Subway", "postalCode": "30076", "province": "GA", "websites": null }, "geometry": { "type": "Point", "coordinates": [ -84.310335619, 34.01691199 ] } },
{ "type": "Feature", "properties": { "address": "2703 Dawson Rd", "city": "Albany", "country": "US", "keys": "us/ga/albany/2703dawsonrd/-345832572", "latitude": 31.615919, "longitude": -84.21923, "name": "Chick-fil-A", "postalCode": "31707", "province": "GA", "websites": "http://www.chick-fil-a.com/albanysquare,http://www.chick-fil-a.com,http://chick-fil-a.com/albanysquare" }, "geometry": { "type": "Point", "coordinates": [ -84.21923, 31.615919 ] } },
{ "type": "Feature", "properties": { "address": "3333 Buford Dr", "city": "Buford", "country": "US", "keys": "us/ga/buford/3333buforddr/-345832572", "latitude": 34.065147, "longitude": -83.984764, "name": "Chick-fil-a", "postalCode": "30519", "province": "GA", "websites": "http://www.chick-fil-a.com,http://www.chick-fil-a.com/mallofgeorgia" }, "geometry": { "type": "Point", "coordinates": [ -83.984764, 34.065147 ] } },
{ "type": "Feature", "properties": { "address": "5475 Appalachian Hwy", "city": "Blue Ridge", "country": "US", "keys": "us/ga/blueridge/5475appalachianhwy/-864103396", "latitude": 34.87743, "longitude": -84.30003, "name": "Taco Bell", "postalCode": "30513", "province": "GA", "websites": "http://www.tacobell.com,https://locations.tacobell.com/ga/blue-ridge/5475-appalachian-hwy.html?utm_source=yextandutm_campaign=yextpowerlistingsandutm_medium=referralandutm_term=027308andutm_content=website,https://locations.tacobell.com/ga/blue-ridge/547" }, "geometry": { "type": "Point", "coordinates": [ -84.30003, 34.87743 ] } },
{ "type": "Feature", "properties": { "address": "2101 Duluth Highway 120", "city": "Duluth", "country": "US", "keys": "us/ga/duluth/2101duluthhighway120/-1161002137", "latitude": 33.976677, "longitude": -84.092219, "name": "McDonald's", "postalCode": "30097", "province": "GA", "websites": "http://mcdonalds.com" }, "geometry": { "type": "Point", "coordinates": [ -84.092219, 33.976677 ] } },
{ "type": "Feature", "properties": { "address": "4890 Peachtree Industrial Blvd", "city": "Norcross", "country": "US", "keys": "us/ga/norcross/4890peachtreeindustrialblvd/-1721138121", "latitude": 33.968101, "longitude": -84.194945, "name": "Dairy Queen", "postalCode": "30071", "province": "GA", "websites": "http://www.dairyqueen.com" }, "geometry": { "type": "Point", "coordinates": [ -84.194945, 33.968101 ] } },
{ "type": "Feature", "properties": { "address": "3983 Bemiss Rd", "city": "Valdosta", "country": "US", "keys": "us/ga/valdosta/3983bemissrd/-791445730", "latitude": 30.90909, "longitude": -83.26376, "name": "Wendy's", "postalCode": "31605", "province": "GA", "websites": "http://www.wendys.com" }, "geometry": { "type": "Point", "coordinates": [ -83.26376, 30.90909 ] } },
{ "type": "Feature", "properties": { "address": "4500 Forsyth Rd", "city": "Macon", "country": "US", "keys": "us/ga/macon/4500forsythrd/93075755", "latitude": 32.8705, "longitude": -83.7029, "name": "Arby's", "postalCode": "31210", "province": "GA", "websites": "http://www.arbys.com,http://locations.arbys.com/us/ga/macon/4500-forsyth-rd.html,http://arbys.com" }, "geometry": { "type": "Point", "coordinates": [ -83.7029, 32.8705 ] } },
{ "type": "Feature", "properties": { "address": "1765 Hwy. 138", "city": "Conyers", "country": "US", "keys": "us/ga/conyers/1765hwy138/-1161002137", "latitude": 33.643153456999997, "longitude": -84.015102827999996, "name": "McDonald's", "postalCode": "30094", "province": "GA", "websites": null }, "geometry": { "type": "Point", "coordinates": [ -84.015102828, 33.643153457 ] } },
{ "type": "Feature", "properties": { "address": "1000 Saint Patricks Dr", "city": "Perry", "country": "US", "keys": "us/ga/perry/1000saintpatricksdr/-2061630068", "latitude": 32.470969, "longitude": -83.743028, "name": "Burger King", "postalCode": "31069", "province": "GA", "websites": "http://www.bk.com,https://locations.bk.com/ga/perry/1000-st-patrick-s-dr.html" }, "geometry": { "type": "Point", "coordinates": [ -83.743028, 32.470969 ] } },
{ "type": "Feature", "properties": { "address": "600 Highway 29 N", "city": "Athens", "country": "US", "keys": "us/ga/athens/600highway29n/-2061630068", "latitude": 33.99426, "longitude": -83.33705, "name": "Burger King", "postalCode": "30601", "province": "GA", "websites": "https://locations.bk.com/ga/athens/600-us-highway-29-north.html,http://www.bk.com,http://bk.com" }, "geometry": { "type": "Point", "coordinates": [ -83.33705, 33.99426 ] } },
{ "type": "Feature", "properties": { "address": "3056 Jodeco Rd", "city": "Mcdonough", "country": "US", "keys": "us/ga/mcdonough/3056jodecord/696490760", "latitude": 33.481957, "longitude": -84.215095, "name": "Hardee's", "postalCode": "30253", "province": "GA", "websites": "http://www.hardees.com" }, "geometry": { "type": "Point", "coordinates": [ -84.215095, 33.481957 ] } },
{ "type": "Feature", "properties": { "address": "335 W Ponce de Leon Ave", "city": "Decatur", "country": "US", "keys": "us/ga/decatur/335wponcedeleonave/-1947870258", "latitude": 33.77579, "longitude": -84.30142, "name": "Jimmy John's", "postalCode": "30030", "province": "GA", "websites": "http://www.jimmyjohns.com" }, "geometry": { "type": "Point", "coordinates": [ -84.30142, 33.77579 ] } },
{ "type": "Feature", "properties": { "address": "2723 Glynn Ave", "city": "Brunswick", "country": "US", "keys": "us/ga/brunswick/2723glynnave/-2061630068", "latitude": 31.169169, "longitude": -81.474851, "name": "Burger King", "postalCode": "31520", "province": "GA", "websites": "http://burgerking.com" }, "geometry": { "type": "Point", "coordinates": [ -81.474851, 31.169169 ] } },
{ "type": "Feature", "properties": { "address": "2424 Dallas Hwy SW", "city": "Marietta", "country": "US", "keys": "us/ga/marietta/2424dallashwysw/93075755", "latitude": 33.94628, "longitude": -84.62269, "name": "Arby's", "postalCode": "30064", "province": "GA", "websites": "http://www.arbys.com,http://locations.arbys.com/us/ga/marietta/2424-dallas-hwy-sw.html" }, "geometry": { "type": "Point", "coordinates": [ -84.62269, 33.94628 ] } },
{ "type": "Feature", "properties": { "address": "1002 Jesse Jewell Pkwy", "city": "Gainesville", "country": "US", "keys": "us/ga/gainesville/1002jessejewellpkwy/-442344130", "latitude": 34.2901, "longitude": -83.8334, "name": "Krystal", "postalCode": "30501", "province": "GA", "websites": "http://t.co/3VQiWtMxPf,http://www.krystal.com/locations/georgia/gainesville-jesse-jewell-parkway/" }, "geometry": { "type": "Point", "coordinates": [ -83.8334, 34.2901 ] } },
{ "type": "Feature", "properties": { "address": "303 S Magnolia St", "city": "Tifton", "country": "US", "keys": "us/ga/tifton/303smagnoliast/1241037051", "latitude": 31.451335, "longitude": -83.524973, "name": "Bojangles' Famous Chicken 'n Biscuits", "postalCode": "31793", "province": "GA", "websites": "http://locations.bojangles.com/ga/tifton/303-s--magnolia-street.html" }, "geometry": { "type": "Point", "coordinates": [ -83.524973, 31.451335 ] } },
{ "type": "Feature", "properties": { "address": "928 Buford Dr", "city": "Lawrenceville", "country": "US", "keys": "us/ga/lawrenceville/928buforddr/-864103396", "latitude": 33.98788, "longitude": -83.98449, "name": "Taco Bell", "postalCode": "30043", "province": "GA", "websites": "http://www.tacobell.com,https://locations.tacobell.com/ga/lawrenceville/928-buford-drive.html?utm_source=yextandutm_campaign=yextpowerlistingsandutm_medium=referralandutm_term=033412andutm_content=website" }, "geometry": { "type": "Point", "coordinates": [ -83.98449, 33.98788 ] } },
{ "type": "Feature", "properties": { "address": "3675 Cascade Rd SW", "city": "Atlanta", "country": "US", "keys": "us/ga/atlanta/3675cascaderdsw/-791445730", "latitude": 33.72514, "longitude": -84.50685, "name": "Wendy's", "postalCode": "30331", "province": "GA", "websites": "http://www.wendys.com" }, "geometry": { "type": "Point", "coordinates": [ -84.50685, 33.72514 ] } },
{ "type": "Feature", "properties": { "address": "1002 Peterson Ave N", "city": "Douglas", "country": "US", "keys": "us/ga/douglas/1002petersonaven/106088", "latitude": 31.5187, "longitude": -82.8504, "name": "KFC", "postalCode": "31533", "province": "GA", "websites": "http://www.kfc.com" }, "geometry": { "type": "Point", "coordinates": [ -82.8504, 31.5187 ] } },
{ "type": "Feature", "properties": { "address": "600 Lanier Ave W", "city": "Fayetteville", "country": "US", "keys": "us/ga/fayetteville/600lanieravew/423554565", "latitude": 33.4463872, "longitude": -84.46770357, "name": "Chick-fil-a Truett's Luau", "postalCode": "30214", "province": "GA", "websites": "http://chick-fil-a.com/truettsluau" }, "geometry": { "type": "Point", "coordinates": [ -84.46770357, 33.4463872 ] } },
{ "type": "Feature", "properties": { "address": "11277 Highway 27", "city": "Summerville", "country": "US", "keys": "us/ga/summerville/11277highway27/-864103396", "latitude": 34.494633, "longitude": -85.33609, "name": "Taco Bell", "postalCode": "30747", "province": "GA", "websites": "http://www.tacobell.com,http://api.citygridmedia.com/content/places/v2/click?q=9YKflVKbY9NauPJdMy0B1gS1IhB4xv4EWw0zDoT-UWc_izWF3zs5PKGdfOHubWrvM0QwDCYwbOH2fdLi0dK5xArULcksCCbfR-WWAz9xD1AmGVAQZIom4U3n5R4DuRC8WJCtvJcNItEKoCSfzwapuGnmwGnHDpEGYXGjnN4u8zXqkii" }, "geometry": { "type": "Point", "coordinates": [ -85.33609, 34.494633 ] } },
{ "type": "Feature", "properties": { "address": "1504 Turner McCall Blvd SW", "city": "Rome", "country": "US", "keys": "us/ga/rome/1504turnermccallblvdsw/-1161002137", "latitude": 34.24659, "longitude": -85.1619, "name": "McDonald's", "postalCode": "30161", "province": "GA", "websites": "http://mcdonalds.com,http://www.mcdonalds.com/?cid=RF:YXT_FM:TP::Yext:Referral" }, "geometry": { "type": "Point", "coordinates": [ -85.1619, 34.24659 ] } },
{ "type": "Feature", "properties": { "address": "1765 Highway 138", "city": "Conyers", "country": "US", "keys": "us/ga/conyers/1765highway138/-1161002137", "latitude": 33.626102, "longitude": -84.044695, "name": "McDonald's", "postalCode": "30094", "province": "GA", "websites": "http://www.mcdonalds.com" }, "geometry": { "type": "Point", "coordinates": [ -84.044695, 33.626102 ] } },
{ "type": "Feature", "properties": { "address": "4397 Hartley Bridge Rd", "city": "Macon", "country": "US", "keys": "us/ga/macon/4397hartleybridgerd/-791445730", "latitude": 32.744054, "longitude": -83.715386, "name": "Wendy's", "postalCode": "31216", "province": "GA", "websites": "http://www.wendys.com" }, "geometry": { "type": "Point", "coordinates": [ -83.715386, 32.744054 ] } },
{ "type": "Feature", "properties": { "address": "3670 Cascade Rd SW", "city": "Atlanta", "country": "US", "keys": "us/ga/atlanta/3670cascaderdsw/-1161002137", "latitude": 33.722898, "longitude": -84.50757, "name": "McDonald's", "postalCode": "30331", "province": "GA", "websites": "http://mcdonalds.com,http://www.mcdonalds.com/?cid=RF:YXT_FM:TP::Yext:Referral" }, "geometry": { "type": "Point", "coordinates": [ -84.50757, 33.722898 ] } },
{ "type": "Feature", "properties": { "address": "2970 Anvil Block Rd", "city": "Ellenwood", "country": "US", "keys": "us/ga/ellenwood/2970anvilblockrd/-791445730", "latitude": 33.633804, "longitude": -84.29197, "name": "Wendy's", "postalCode": "30294", "province": "GA", "websites": "http://www.wendys.com,http://wendys.com" }, "geometry": { "type": "Point", "coordinates": [ -84.29197, 33.633804 ] } },
{ "type": "Feature", "properties": { "address": "2049 Cobb Pkwy NW", "city": "Kennesaw", "country": "US", "keys": "us/ga/kennesaw/2049cobbpkwynw/-1161002137", "latitude": 34.002105, "longitude": -84.598721, "name": "McDonald's", "postalCode": "30152", "province": "GA", "websites": "http://mcdonalds.com,http://www.mcdonalds.com/?cid=RF:YXT_FM:TP::Yext:Referral" }, "geometry": { "type": "Point", "coordinates": [ -84.598721, 34.002105 ] } },
{ "type": "Feature", "properties": { "address": "115 Truck", "city": "Jackson", "country": "US", "keys": "us/ga/jackson/115truck/-1161002137", "latitude": 33.208373131000002, "longitude": -84.058582646999994, "name": "Mcdonald's", "postalCode": "30233", "province": "GA", "websites": "http://www.mcdonalds.com" }, "geometry": { "type": "Point", "coordinates": [ -84.058582647, 33.208373131 ] } },
{ "type": "Feature", "properties": { "address": "7370 Spout Springs Rd", "city": "Flowery Branch", "country": "US", "keys": "us/ga/flowerybranch/7370spoutspringsrd/-1161002137", "latitude": 34.10842, "longitude": -83.87445, "name": "McDonald's", "postalCode": "30542", "province": "GA", "websites": "http://mcdonalds.com" }, "geometry": { "type": "Point", "coordinates": [ -83.87445, 34.10842 ] } },
{ "type": "Feature", "properties": { "address": "10136 Hawkinsville Rd", "city": "Warner Robins", "country": "US", "keys": "us/ga/warnerrobins/10136hawkinsvillerd/-442344130", "latitude": 32.659703, "longitude": -83.618014, "name": "Krystal", "postalCode": "31093", "province": "GA", "websites": "http://t.co/3VQiWtMxPf,http://www.krystal.com/locations/georgia/warner-robins-hawkinsville-road/" }, "geometry": { "type": "Point", "coordinates": [ -83.618014, 32.659703 ] } },
{ "type": "Feature", "properties": { "address": "7835 US Highway 80 E", "city": "Savannah", "country": "US", "keys": "us/ga/savannah/7835ushighway80e/-791445730", "latitude": 32.031526, "longitude": -80.96539, "name": "Wendy's", "postalCode": "31410", "province": "GA", "websites": "http://www.wendys.com" }, "geometry": { "type": "Point", "coordinates": [ -80.96539, 32.031526 ] } },
{ "type": "Feature", "properties": { "address": "Sixes Rd.", "city": "Canton", "country": "US", "keys": "us/ga/canton/sixesrd/-1161002137", "latitude": 34.173428185, "longitude": -84.54960713, "name": "McDonald's", "postalCode": "30114", "province": "GA", "websites": "http://mcdonalds.com" }, "geometry": { "type": "Point", "coordinates": [ -84.54960713, 34.173428185 ] } },
{ "type": "Feature", "properties": { "address": "300 McFarland Ave", "city": "Rossville", "country": "US", "keys": "us/ga/rossville/300mcfarlandave/696490760", "latitude": 34.98217, "longitude": -85.287778, "name": "Hardee's", "postalCode": "30741", "province": "GA", "websites": "http://www.hardees.com" }, "geometry": { "type": "Point", "coordinates": [ -85.287778, 34.98217 ] } },
{ "type": "Feature", "properties": { "address": "6490 Milgen Rd", "city": "Columbus", "country": "US", "keys": "us/ga/columbus/6490milgenrd/-791445730", "latitude": 32.53662, "longitude": -84.86997, "name": "Wendy's", "postalCode": "31907", "province": "GA", "websites": "http://www.wendys.com" }, "geometry": { "type": "Point", "coordinates": [ -84.86997, 32.53662 ] } },
{ "type": "Feature", "properties": { "address": "21 Medical Center Dr", "city": "Dawsonville", "country": "US", "keys": "us/ga/dawsonville/21medicalcenterdr/-2061630068", "latitude": 34.36625, "longitude": -84.03679, "name": "Burger King", "postalCode": "30534", "province": "GA", "websites": "http://www.bk.com,http://bk.com" }, "geometry": { "type": "Point", "coordinates": [ -84.03679, 34.36625 ] } },
{ "type": "Feature", "properties": { "address": "1609 N Ashley St", "city": "Valdosta", "country": "US", "keys": "us/ga/valdosta/1609nashleyst/-791445730", "latitude": 30.8518, "longitude": -83.2805, "name": "Wendy's", "postalCode": "31602", "province": "GA", "websites": "http://www.wendys.com,http://wendys.com" }, "geometry": { "type": "Point", "coordinates": [ -83.2805, 30.8518 ] } },
{ "type": "Feature", "properties": { "address": "2631 Skidaway Rd", "city": "Savannah", "country": "US", "keys": "us/ga/savannah/2631skidawayrd/-864103396", "latitude": 32.042066, "longitude": -81.063974, "name": "Taco Bell", "postalCode": "31404", "province": "GA", "websites": "http://www.tacobell.com,https://locations.tacobell.com/ga/savannah/2631-skidaway-rd.html?utm_source=yextandutm_campaign=yextpowerlistingsandutm_medium=referralandutm_term=027953andutm_content=website" }, "geometry": { "type": "Point", "coordinates": [ -81.063974, 32.042066 ] } },
{ "type": "Feature", "properties": { "address": "2719 Watson Blvd", "city": "Warner Robins", "country": "US", "keys": "us/ga/warnerrobins/2719watsonblvd/-864103396", "latitude": 32.61788, "longitude": -83.67307, "name": "Taco Bell", "postalCode": "31093", "province": "GA", "websites": "http://www.tacobell.com,https://locations.tacobell.com/ga/warner-robins/2719-watson-blvd-.html?utm_source=yextandutm_campaign=yextpowerlistingsandutm_medium=referralandutm_term=029101andutm_content=website,https://locations.tacobell.com/ga/warner-robins/" }, "geometry": { "type": "Point", "coordinates": [ -83.67307, 32.61788 ] } },
{ "type": "Feature", "properties": { "address": "170 Tom Hill Sr Blvd", "city": "Macon", "country": "US", "keys": "us/ga/macon/170tomhillsrblvd/-864103396", "latitude": 32.898942, "longitude": -83.689293, "name": "Taco Bell", "postalCode": "31210", "province": "GA", "websites": "http://www.tacobell.com,https://locations.tacobell.com/ga/macon/170-tom-hill-sr--blvd.html?utm_source=yextandutm_campaign=yextpowerlistingsandutm_medium=referralandutm_term=003978andutm_content=website,https://locations.tacobell.com/ga/macon/170-tom-hill" }, "geometry": { "type": "Point", "coordinates": [ -83.689293, 32.898942 ] } },
{ "type": "Feature", "properties": { "address": "700 Thomaston St", "city": "Zebulon", "country": "US", "keys": "us/ga/zebulon/700thomastonst/-891525969", "latitude": 33.098567, "longitude": -84.34291, "name": "Subway", "postalCode": "30295", "province": "GA", "websites": "http://subway.com,http://www.subway.com" }, "geometry": { "type": "Point", "coordinates": [ -84.34291, 33.098567 ] } },
{ "type": "Feature", "properties": { "address": "3588 Battlefield Pkwy", "city": "Fort Oglethorpe", "country": "US", "keys": "us/ga/fortoglethorpe/3588battlefieldpkwy/-791445730", "latitude": 34.94059, "longitude": -85.218034, "name": "Wendy's", "postalCode": "30742", "province": "GA", "websites": "https://locations.wendys.com/fort-oglethorpe-ga-9699,http://www.wendys.com" }, "geometry": { "type": "Point", "coordinates": [ -85.218034, 34.94059 ] } },
{ "type": "Feature", "properties": { "address": "3847 Highway 138 SE", "city": "Stockbridge", "country": "US", "keys": "us/ga/stockbridge/3847highway138se/-791445730", "latitude": 33.55427, "longitude": -84.26553, "name": "Wendy's", "postalCode": "30281", "province": "GA", "websites": "http://www.wendys.com" }, "geometry": { "type": "Point", "coordinates": [ -84.26553, 33.55427 ] } },
{ "type": "Feature", "properties": { "address": "1235 Jesse Jewell Pkwy Sw", "city": "Gainesville", "country": "US", "keys": "us/ga/gainesville/1235jessejewellpkwysw/1241037051", "latitude": 34.287268675999997, "longitude": -83.837371676999993, "name": "Bojangles' Famous Chicken 'n Biscuits", "postalCode": "30501", "province": "GA", "websites": null }, "geometry": { "type": "Point", "coordinates": [ -83.837371677, 34.287268676 ] } },
{ "type": "Feature", "properties": { "address": "665 W Crossville Rd", "city": "Roswell", "country": "US", "keys": "us/ga/roswell/665wcrossvillerd/93075755", "latitude": 34.0588, "longitude": -84.3809, "name": "Arby's", "postalCode": "30075", "province": "GA", "websites": "http://www.arbys.com,https://locations.arbys.com/us/ga/roswell/665-w-crossville-rd.html,http://locations.arbys.com/us/ga/roswell/665-w-crossville-rd.html,http://arbys.com" }, "geometry": { "type": "Point", "coordinates": [ -84.3809, 34.0588 ] } },
{ "type": "Feature", "properties": { "address": "2782 Sandy Plains Rd", "city": "Marietta", "country": "US", "keys": "us/ga/marietta/2782sandyplainsrd/-1161002137", "latitude": 34.01742, "longitude": -84.491136, "name": "McDonald's", "postalCode": "30066", "province": "GA", "websites": "http://mcdonalds.com,http://www.mcdonalds.com/?cid=RF:YXT_FM:TP::Yext:Referral" }, "geometry": { "type": "Point", "coordinates": [ -84.491136, 34.01742 ] } },
{ "type": "Feature", "properties": { "address": "3531 Flat Shoals Rd", "city": "Decatur", "country": "US", "keys": "us/ga/decatur/3531flatshoalsrd/-1161002137", "latitude": 33.70438, "longitude": -84.27121, "name": "McDonald's", "postalCode": "30034", "province": "GA", "websites": "http://mcdonalds.com,http://www.mcdonalds.com/?cid=RF:YXT_FM:TP::Yext:Referral" }, "geometry": { "type": "Point", "coordinates": [ -84.27121, 33.70438 ] } },
{ "type": "Feature", "properties": { "address": "885 Industrial Blvd", "city": "Mcdonough", "country": "US", "keys": "us/ga/mcdonough/885industrialblvd/-1161002137", "latitude": 33.42853, "longitude": -84.179288, "name": "McDonald's", "postalCode": "30253", "province": "GA", "websites": "http://mcdonalds.com,http://www.mcdonalds.com/?cid=RF:YXT_FM:TP::Yext:Referral" }, "geometry": { "type": "Point", "coordinates": [ -84.179288, 33.42853 ] } },
{ "type": "Feature", "properties": { "address": "811 Madison Ave N", "city": "Douglas", "country": "US", "keys": "us/ga/douglas/811madisonaven/-2061630068", "latitude": 31.516204, "longitude": -82.849321, "name": "Burger King", "postalCode": "31533", "province": "GA", "websites": "http://www.bk.com,https://locations.bk.com/ga/douglas/811-north-madison-ave.html,https://www.bk.com" }, "geometry": { "type": "Point", "coordinates": [ -82.849321, 31.516204 ] } },
{ "type": "Feature", "properties": { "address": "472 E Third St", "city": "Jackson", "country": "US", "keys": "us/ga/jackson/472ethirdst/-2061630068", "latitude": 33.294072798999998, "longitude": -83.962063862999997, "name": "Burger King", "postalCode": "30233", "province": "GA", "websites": "http://bk.com" }, "geometry": { "type": "Point", "coordinates": [ -83.962063863, 33.294072799 ] } },
{ "type": "Feature", "properties": { "address": "53 Josh Hall Rd", "city": "Blue Ridge", "country": "US", "keys": "us/ga/blueridge/53joshhallrd/-791445730", "latitude": 34.873521, "longitude": -84.316431, "name": "Wendy's", "postalCode": "30513", "province": "GA", "websites": "http://www.wendys.com,http://api.citygridmedia.com/content/places/v2/click?q=9YKflVKbY9NauPJdMy0B1gS1IhB4xv4ESe32aGoZZfGxPUKOAupg6AXFQsvl2-A1Ztd21x5FLKumNpUzGNTBeMk2RvPjC41ZIvgiFwjULRMf936HQ-3fDilu-Jgq-3DroFPqeb7LaXUO4XtGt4yXSJsg9W4tlLVRNocJRkydaRxa9wTgF" }, "geometry": { "type": "Point", "coordinates": [ -84.316431, 34.873521 ] } },
{ "type": "Feature", "properties": { "address": "7800 Senoia Rd", "city": "Fairburn", "country": "US", "keys": "us/ga/fairburn/7800senoiard/1082608893", "latitude": 33.544254502999998, "longitude": -84.576540002000002, "name": "Waffle House", "postalCode": "30213", "province": "GA", "websites": null }, "geometry": { "type": "Point", "coordinates": [ -84.576540002, 33.544254503 ] } },
{ "type": "Feature", "properties": { "address": "1031 Franklin Springs St", "city": "Royston", "country": "US", "keys": "us/ga/royston/1031franklinspringsst/-2061630068", "latitude": 34.284740813, "longitude": -83.127371526000005, "name": "Burger King", "postalCode": "30662", "province": "GA", "websites": "http://www.bk.com" }, "geometry": { "type": "Point", "coordinates": [ -83.127371526, 34.284740813 ] } },
{ "type": "Feature", "properties": { "address": "3997 Appalachian Hwy", "city": "Blue Ridge", "country": "US", "keys": "us/ga/blueridge/3997appalachianhwy/93075755", "latitude": 34.860266, "longitude": -84.335528, "name": "Arby's", "postalCode": "30513", "province": "GA", "websites": "http://www.arbys.com,http://arbys.com" }, "geometry": { "type": "Point", "coordinates": [ -84.335528, 34.860266 ] } },
{ "type": "Feature", "properties": { "address": "6151 Highway 278 NW", "city": "Covington", "country": "US", "keys": "us/ga/covington/6151highway278nw/-864103396", "latitude": 33.6026, "longitude": -83.864686, "name": "Taco Bell", "postalCode": "30014", "province": "GA", "websites": "http://www.tacobell.com,https://locations.tacobell.com/ga/covington/6151-hwy-278-nw.html?utm_source=yextandutm_campaign=yextpowerlistingsandutm_medium=referralandutm_term=003717andutm_content=website" }, "geometry": { "type": "Point", "coordinates": [ -83.864686, 33.6026 ] } },
{ "type": "Feature", "properties": { "address": "1020 King George Blvd", "city": "Savannah", "country": "US", "keys": "us/ga/savannah/1020kinggeorgeblvd/1780593795", "latitude": 31.98523, "longitude": -81.21985, "name": "SONIC Drive In", "postalCode": "31419", "province": "GA", "websites": "https://locations.sonicdrivein.com/ga/savannah/1020-king-george-blvd.html,http://sonicdrivein.com" }, "geometry": { "type": "Point", "coordinates": [ -81.21985, 31.98523 ] } },
{ "type": "Feature", "properties": { "address": "3041 Headland Dr SW", "city": "Atlanta", "country": "US", "keys": "us/ga/atlanta/3041headlanddrsw/-791445730", "latitude": 33.689926, "longitude": -84.488197, "name": "Wendy's", "postalCode": "30311", "province": "GA", "websites": "http://www.wendys.com,http://wendys.com/" }, "geometry": { "type": "Point", "coordinates": [ -84.488197, 33.689926 ] } },
{ "type": "Feature", "properties": { "address": "4776 Sugarloaf Pkwy", "city": "Lawrenceville", "country": "US", "keys": "us/ga/lawrenceville/4776sugarloafpkwy/106088", "latitude": 33.95166, "longitude": -84.05104, "name": "KFC", "postalCode": "30044", "province": "GA", "websites": "http://www.kfc.com,http://kfc.com" }, "geometry": { "type": "Point", "coordinates": [ -84.05104, 33.95166 ] } },
{ "type": "Feature", "properties": { "address": "2215 Shorter Ave SW", "city": "Rome", "country": "US", "keys": "us/ga/rome/2215shorteravesw/-1161002137", "latitude": 34.27119, "longitude": -85.226593, "name": "McDonald's", "postalCode": "30165", "province": "GA", "websites": "http://mcdonalds.com,http://www.mcdonalds.com/?cid=RF:YXT_FM:TP::Yext:Referral" }, "geometry": { "type": "Point", "coordinates": [ -85.226593, 34.27119 ] } },
{ "type": "Feature", "properties": { "address": "1407 Eisenhower Pkwy", "city": "Macon", "country": "US", "keys": "us/ga/macon/1407eisenhowerpkwy/-791445730", "latitude": 32.8148, "longitude": -83.6638, "name": "Wendy's", "postalCode": "31206", "province": "GA", "websites": "http://www.wendys.com,http://wendys.com" }, "geometry": { "type": "Point", "coordinates": [ -83.6638, 32.8148 ] } },
{ "type": "Feature", "properties": { "address": "912 Loganville Hwy", "city": "Winder", "country": "US", "keys": "us/ga/winder/912loganvillehwy/-1161002137", "latitude": 33.9484687, "longitude": -83.751590250999996, "name": "Mcdonald's", "postalCode": "30680", "province": "GA", "websites": null }, "geometry": { "type": "Point", "coordinates": [ -83.751590251, 33.9484687 ] } },
{ "type": "Feature", "properties": { "address": "1359 Virginia Ave", "city": "Atlanta", "country": "US", "keys": "us/ga/atlanta/1359virginiaave/93075755", "latitude": 33.659398, "longitude": -84.433666, "name": "Arby's", "postalCode": "30344", "province": "GA", "websites": "http://www.arbys.com,http://locations.arbys.com/us/ga/atlanta/1359-virginia-ave.html" }, "geometry": { "type": "Point", "coordinates": [ -84.433666, 33.659398 ] } },
{ "type": "Feature", "properties": { "address": "1355 Joe Frank Harris Pkwy", "city": "Cartersville", "country": "US", "keys": "us/ga/cartersville/1355joefrankharrispkwy/1082608893", "latitude": 34.17746, "longitude": -84.812057, "name": "Waffle House", "postalCode": "30120", "province": "GA", "websites": "https://locations.wafflehouse.com/ga-cartersville-1366,http://www.wafflehouse.com" }, "geometry": { "type": "Point", "coordinates": [ -84.812057, 34.17746 ] } },
{ "type": "Feature", "properties": { "address": "860 Highway 81 E", "city": "Mcdonough", "country": "US", "keys": "us/ga/mcdonough/860highway81e/-345832572", "latitude": 33.4389, "longitude": -84.1214, "name": "Chick-fil-A", "postalCode": "30252", "province": "GA", "websites": "http://www.chick-fil-a.com/lakedow,http://www.chick-fil-a.com" }, "geometry": { "type": "Point", "coordinates": [ -84.1214, 33.4389 ] } },
{ "type": "Feature", "properties": { "address": "2000 Riverstone Blvd", "city": "Canton", "country": "US", "keys": "us/ga/canton/2000riverstoneblvd/-891525969", "latitude": 34.256902, "longitude": -84.481675, "name": "Subway", "postalCode": "30114", "province": "GA", "websites": "http://www.subway.com" }, "geometry": { "type": "Point", "coordinates": [ -84.481675, 34.256902 ] } },
{ "type": "Feature", "properties": { "address": "5345 Old Highway 5", "city": "Woodstock", "country": "US", "keys": "us/ga/woodstock/5345oldhighway5/-791445730", "latitude": 34.139793, "longitude": -84.503716, "name": "Wendy's", "postalCode": "30188", "province": "GA", "websites": "http://www.wendys.com" }, "geometry": { "type": "Point", "coordinates": [ -84.503716, 34.139793 ] } },
{ "type": "Feature", "properties": { "address": "11140 Highway 142 N", "city": "Covington", "country": "US", "keys": "us/ga/covington/11140highway142n/-864103396", "latitude": 33.608307, "longitude": -83.82774, "name": "Taco Bell", "postalCode": "30014", "province": "GA", "websites": "http://www.tacobell.com" }, "geometry": { "type": "Point", "coordinates": [ -83.82774, 33.608307 ] } },
{ "type": "Feature", "properties": { "address": "611 Northside Dr E", "city": "Statesboro", "country": "US", "keys": "us/ga/statesboro/611northsidedre/-1161002137", "latitude": 32.439208, "longitude": -81.76338, "name": "McDonald's", "postalCode": "30458", "province": "GA", "websites": "http://mcdonalds.com" }, "geometry": { "type": "Point", "coordinates": [ -81.76338, 32.439208 ] } },
{ "type": "Feature", "properties": { "address": "1505 Philema Rd S", "city": "Leesburg", "country": "US", "keys": "us/ga/leesburg/1505philemards/-891525969", "latitude": 31.627951, "longitude": -84.1222, "name": "Subway", "postalCode": "31763", "province": "GA", "websites": "http://www.subway.com,http://subway.com" }, "geometry": { "type": "Point", "coordinates": [ -84.1222, 31.627951 ] } },
{ "type": "Feature", "properties": { "address": "1318 Dawson Rd", "city": "Albany", "country": "US", "keys": "us/ga/albany/1318dawsonrd/-1055723171", "latitude": 31.58644, "longitude": -84.18444, "name": "Domino's Pizza", "postalCode": "31707", "province": "GA", "websites": "http://www.dominos.com" }, "geometry": { "type": "Point", "coordinates": [ -84.18444, 31.58644 ] } },
{ "type": "Feature", "properties": { "address": "1830 US Highway 82 W", "city": "Tifton", "country": "US", "keys": "us/ga/tifton/1830ushighway82w/-891525969", "latitude": 31.4424, "longitude": -83.5437, "name": "Subway", "postalCode": "31793", "province": "GA", "websites": "http://api.citygridmedia.com/content/places/v2/click?q=9YKflVKbY9NauPJdMy0B1gS1IhB4xv4EWw0zDoT-UWc_izWF3zs5PKGdfOHubWrvM0QwDCYwbOH2fdLi0dK5xArULcksCCbfR-WWAz9xD1AmGVAQZIom4U3n5R4DuRC8WJCtvJcNItEKoCSfzwapuGnmwGnHDpEGYXGjnN4u8zXqkiimSHFf4_dbqGRbVgNJY009GGZ" }, "geometry": { "type": "Point", "coordinates": [ -83.5437, 31.4424 ] } },
{ "type": "Feature", "properties": { "address": "1302 W Screven St", "city": "Quitman", "country": "US", "keys": "us/ga/quitman/1302wscrevenst/-891525969", "latitude": 30.785286, "longitude": -83.572137, "name": "Subway", "postalCode": "31643", "province": "GA", "websites": "http://www.subway.com,http://api.citygridmedia.com/content/places/v2/click?q=9YKflVKbY9NauPJdMy0B1gS1IhB4xv4EWw0zDoT-UWc_izWF3zs5PKGdfOHubWrvM0QwDCYwbOH2fdLi0dK5xArULcksCCbfR-WWAz9xD1AmGVAQZIom4U3n5R4DuRC8WJCtvJcNItEKoCSfzwapuGnmwGnHDpEGYXGjnN4u8zXqkiimS" }, "geometry": { "type": "Point", "coordinates": [ -83.572137, 30.785286 ] } },
{ "type": "Feature", "properties": { "address": "860 Glynn St S", "city": "Fayetteville", "country": "US", "keys": "us/ga/fayetteville/860glynnsts/-1161002137", "latitude": 33.430451945000002, "longitude": -84.457054138000004, "name": "McDonald's", "postalCode": "30214", "province": "GA", "websites": "http://mcdonalds.com" }, "geometry": { "type": "Point", "coordinates": [ -84.457054138, 33.430451945 ] } },
{ "type": "Feature", "properties": { "address": "2636 Wesley Chapel Rd", "city": "Decatur", "country": "US", "keys": "us/ga/decatur/2636wesleychapelrd/-1161002137", "latitude": 33.71067, "longitude": -84.21706, "name": "McDonald's", "postalCode": "30034", "province": "GA", "websites": "http://mcdonalds.com,http://www.mcdonalds.com/?cid=RF:YXT_FM:TP::Yext:Referral" }, "geometry": { "type": "Point", "coordinates": [ -84.21706, 33.71067 ] } },
{ "type": "Feature", "properties": { "address": "1506 W McIntosh Rd", "city": "Griffin", "country": "US", "keys": "us/ga/griffin/1506wmcintoshrd/-791445730", "latitude": 33.2744, "longitude": -84.2944, "name": "Wendy's", "postalCode": "30223", "province": "GA", "websites": "http://www.wendys.com" }, "geometry": { "type": "Point", "coordinates": [ -84.2944, 33.2744 ] } },
{ "type": "Feature", "properties": { "address": "5068 Old National Hwy", "city": "Atlanta", "country": "US", "keys": "us/ga/atlanta/5068oldnationalhwy/-2061630068", "latitude": 33.61725, "longitude": -84.47227, "name": "Burger King", "postalCode": "30349", "province": "GA", "websites": "http://www.burgerking.com/,http://bk.com" }, "geometry": { "type": "Point", "coordinates": [ -84.47227, 33.61725 ] } },
{ "type": "Feature", "properties": { "address": "9878 Ford Ave", "city": "Richmond Hill", "country": "US", "keys": "us/ga/richmondhill/9878fordave/696490760", "latitude": 31.94934, "longitude": -81.3123, "name": "Hardee's", "postalCode": "31324", "province": "GA", "websites": "http://www.hardees.com,http://hardees.com" }, "geometry": { "type": "Point", "coordinates": [ -81.3123, 31.94934 ] } },
{ "type": "Feature", "properties": { "address": "3035 Canton Rd", "city": "Marietta", "country": "US", "keys": "us/ga/marietta/3035cantonrd/-791445730", "latitude": 34.026186, "longitude": -84.528972, "name": "Wendy's", "postalCode": "30066", "province": "GA", "websites": "http://www.wendys.com" }, "geometry": { "type": "Point", "coordinates": [ -84.528972, 34.026186 ] } },
{ "type": "Feature", "properties": { "address": "2108 Memorial Dr", "city": "Waycross", "country": "US", "keys": "us/ga/waycross/2108memorialdr/1780593795,us/ga/waycross/2108memorialdr/1780593795", "latitude": 31.20063, "longitude": -82.32911, "name": "Sonic Drive-In", "postalCode": "31501-1005", "province": "GA", "websites": "http://sonicdrivein.com" }, "geometry": { "type": "Point", "coordinates": [ -82.32911, 31.20063 ] } },
{ "type": "Feature", "properties": { "address": "6006 Memorial Dr", "city": "Stone Mountain", "country": "US", "keys": "us/ga/stonemountain/6006memorialdr/93075755", "latitude": 33.802735, "longitude": -84.193523, "name": "Arby's", "postalCode": "30083", "province": "GA", "websites": "http://www.arbys.com" }, "geometry": { "type": "Point", "coordinates": [ -84.193523, 33.802735 ] } },
{ "type": "Feature", "properties": { "address": "2175 Highway 441 S", "city": "Dublin", "country": "US", "keys": "us/ga/dublin/2175highway441s/-2061630068", "latitude": 32.491197289, "longitude": -82.93331865, "name": "Burger King", "postalCode": "31021", "province": "GA", "websites": "http://bk.com" }, "geometry": { "type": "Point", "coordinates": [ -82.93331865, 32.491197289 ] } },
{ "type": "Feature", "properties": { "address": "700 B Dacula Rd", "city": "Dacula", "country": "US", "keys": "us/ga/dacula/700bdaculard/-2061630068", "latitude": 34.001935073, "longitude": -83.911685749, "name": "Burger King", "postalCode": "30019", "province": "GA", "websites": "http://www.bk.com" }, "geometry": { "type": "Point", "coordinates": [ -83.911685749, 34.001935073 ] } },
{ "type": "Feature", "properties": { "address": "30519 Highway 441 S", "city": "Commerce", "country": "US", "keys": "us/ga/commerce/30519highway441s/-1161002137", "latitude": 34.19915, "longitude": -83.465225, "name": "McDonald's", "postalCode": "30529", "province": "GA", "websites": "http://mcdonalds.com,http://www.mcgeorgia.com/4073,http://api.citygridmedia.com/content/places/v2/click?q=9YKflVKbY9NauPJdMy0B1gS1IhB4xv4EWw0zDoT-UWc_izWF3zs5PKGdfOHubWrvM0QwDCYwbOH2fdLi0dK5xArULcksCCbfR-WWAz9xD1AmGVAQZIom4U3n5R4DuRC8WJCtvJcNItEKoCSfzwap" }, "geometry": { "type": "Point", "coordinates": [ -83.465225, 34.19915 ] } },
{ "type": "Feature", "properties": { "address": "2121 Friendship Rd", "city": "Flowery Branch", "country": "US", "keys": "us/ga/flowerybranch/2121friendshiprd/1241037051", "latitude": 34.108722, "longitude": -83.877157, "name": "Bojangles' Famous Chicken 'n Biscuits", "postalCode": "30542", "province": "GA", "websites": "http://bojangles.com" }, "geometry": { "type": "Point", "coordinates": [ -83.877157, 34.108722 ] } },
{ "type": "Feature", "properties": { "address": "3013 Peach Orchard Rd", "city": "Augusta", "country": "US", "keys": "us/ga/augusta/3013peachorchardrd/-791445730", "latitude": 33.415257, "longitude": -82.024531, "name": "Wendy's", "postalCode": "30906", "province": "GA", "websites": "http://www.wendys.com,http://wendys.com" }, "geometry": { "type": "Point", "coordinates": [ -82.024531, 33.415257 ] } }
]
}
